{"A0651":{"0":[{"id":"2877","nombre":"BILBAO INTERMODAL (2877)","lat":43.2610601506695,"lon":-2.94916366936589},{"id":"1529","nombre":"IORGI (1529)","lat":43.2059621414447,"lon":-3.04640823764481},{"id":"1197","nombre":"SODUPE (GELTOKIA/ESTACIÓN) (1197)","lat":43.2021602745983,"lon":-3.050775090903},{"id":"1198","nombre":"ZERIBAI (1198)","lat":43.1990531874076,"lon":-3.05541072202867},{"id":"1199","nombre":"ARTXUBE (1199)","lat":43.2008367386184,"lon":-3.07094622339227},{"id":"1200","nombre":"LAMBARRI (1200)","lat":43.2064113586144,"lon":-3.08331189041204},{"id":"1226","nombre":"LASIER (1226)","lat":43.2064961818176,"lon":-3.08777018963379},{"id":"1201","nombre":"UDALETXEA / AYUNTAMIENTO (1201)","lat":43.209939484189,"lon":-3.09469372688583},{"id":"1202","nombre":"EUSKADI PLAZA (1202)","lat":43.2126421429135,"lon":-3.09559453434634},{"id":"1203","nombre":"ARANGOITI (GUEÑES) (1203)","lat":43.2128699677141,"lon":-3.10295702695949},{"id":"1204","nombre":"ARANGOITI (ZALLA) (1204)","lat":43.2119740188662,"lon":-3.10781839848269},{"id":"1205","nombre":"ARANGUREN (1205)","lat":43.2112545064712,"lon":-3.11407318157218},{"id":"1206","nombre":"LUSA (1206)","lat":43.213515710509,"lon":-3.13000834088318},{"id":"1257","nombre":"MIMETIZ (UDALETXEA/AYUNTAMIENTO) (1257)","lat":43.2142045297941,"lon":-3.13394949468471},{"id":"1258","nombre":"SAN PEDRO ZARIKETE (ERMITA) (1258)","lat":43.2094979430868,"lon":-3.14097888044193},{"id":"3722","nombre":"IBARRA (LA MADALENA) (3722)","lat":43.204468749171,"lon":-3.14468491369375},{"id":"1259","nombre":"LAS PEDRAJAS (1259)","lat":43.2040260166072,"lon":-3.15943075396183},{"id":"1260","nombre":"LA HERRERA - IJALDE (1260)","lat":43.2037728257235,"lon":-3.17089190096135},{"id":"4292","nombre":"INSTITUTUA/INSTITUTO (4292)","lat":43.1913356691451,"lon":-3.19079307529946},{"id":"3504","nombre":"LA PENILLA (3504)","lat":43.1866071429937,"lon":-3.20299720438432},{"id":"3505","nombre":"AVDA. ENCARTACIONES (3505)","lat":43.1902635311337,"lon":-3.19998420738789},{"id":"1263","nombre":"CAMPO DE LAS MONJAS (1263)","lat":43.1931246859101,"lon":-3.19787546444696}],"1":[{"id":"1263","nombre":"CAMPO DE LAS MONJAS (1263)","lat":43.1931246859101,"lon":-3.19787546444696},{"id":"3506","nombre":"AVDA. ENCARTACIONES (3506)","lat":43.1902000890309,"lon":-3.20021782764142},{"id":"3507","nombre":"LA PENILLA (3507)","lat":43.1867842021353,"lon":-3.20318607317584},{"id":"4293","nombre":"INSTITUTUA/INSTITUTO (4293)","lat":43.1913640350125,"lon":-3.18998090569849},{"id":"1267","nombre":"LA HERRERA - IJALDE (1267)","lat":43.2031717785988,"lon":-3.16936386851139},{"id":"1268","nombre":"LAS PEDRAJAS (1268)","lat":43.2039895340419,"lon":-3.15976301485737},{"id":"3723","nombre":"IBARRA (LA MADALENA) (3723)","lat":43.2047032456132,"lon":-3.14439003695026},{"id":"1269","nombre":"SAN PEDRO ZARIKETE (ERMITA) (1269)","lat":43.2092253056845,"lon":-3.14110332752368},{"id":"1270","nombre":"MIMETIZ (UDALETXEA/AYUNTAMIENTO) (1270)","lat":43.2140873529737,"lon":-3.13404773030105},{"id":"1207","nombre":"LUSA (1207)","lat":43.2133468602039,"lon":-3.1300182006407},{"id":"1208","nombre":"ARANGUREN (1208)","lat":43.2107133843449,"lon":-3.11490930963123},{"id":"1209","nombre":"ARANGOITI (ZALLA) (1209)","lat":43.211911101643,"lon":-3.10769517692665},{"id":"1210","nombre":"ARANGOITI (GUEÑES) (1210)","lat":43.2127351731823,"lon":-3.10264901925401},{"id":"1211","nombre":"EUSKADI PLAZA (1211)","lat":43.2124710425218,"lon":-3.09560657829597},{"id":"1212","nombre":"UDALETXEA / AYUNTAMIENTO (1212)","lat":43.2097613720288,"lon":-3.09469135853741},{"id":"1227","nombre":"LASIER (1227)","lat":43.2063432425088,"lon":-3.08758532106461},{"id":"1213","nombre":"LAMBARRI (1213)","lat":43.2062942070896,"lon":-3.08343483041549},{"id":"1214","nombre":"ARTXUBE (1214)","lat":43.2012035505727,"lon":-3.07173638872564},{"id":"1215","nombre":"ZERIBAI (1215)","lat":43.1989722040055,"lon":-3.05528756402918},{"id":"1216","nombre":"SODUPE (GELTOKIA/ESTACIÓN) (1216)","lat":43.2022234332684,"lon":-3.05049203339448},{"id":"1563","nombre":"IORGI (1563)","lat":43.2067909894214,"lon":-3.04538713233702},{"id":"2877","nombre":"BILBAO INTERMODAL (2877)","lat":43.2610601506695,"lon":-2.94916366936589}]},"A0652":{"0":[{"id":"1371","nombre":"LANESTOSA (1371)","lat":43.2203182822163,"lon":-3.43867523094951},{"id":"1372","nombre":"SANDELOLLA (1372)","lat":43.2187817291056,"lon":-3.43066113360291},{"id":"1373","nombre":"SANGRICES (1373)","lat":43.2144153392669,"lon":-3.42558266863063},{"id":"1306","nombre":"EL PEÑÓN (1306)","lat":43.2172772183173,"lon":-3.41472234029077},{"id":"1374","nombre":"UBAL MENDATEA/PUERTO UBAL (1374)","lat":43.2174766303638,"lon":-3.41086604171126},{"id":"1376","nombre":"TRETO (1376)","lat":43.2224903632111,"lon":-3.40635602178446},{"id":"1377","nombre":"SAN CIPRIÁN (1377)","lat":43.2219879231682,"lon":-3.39291935853367},{"id":"1378","nombre":"OTIDES (1378)","lat":43.2257562309484,"lon":-3.38096243893102},{"id":"1379","nombre":"LLANO (1379)","lat":43.2293275678004,"lon":-3.37656387639276},{"id":"1380","nombre":"TRESPALACIOS (1380)","lat":43.2279167908412,"lon":-3.37291016549923},{"id":"1381","nombre":"SOSCAÑO (1381)","lat":43.222585118161,"lon":-3.36764467834263},{"id":"1384","nombre":"CONCHA (1384)","lat":43.2250304468666,"lon":-3.36036978720751},{"id":"1385","nombre":"AMBASAGUAS (1385)","lat":43.2380248403484,"lon":-3.35719509603448},{"id":"1386","nombre":"EL CALLEJO 2 (1386)","lat":43.2334056107643,"lon":-3.34837505532601},{"id":"1387","nombre":"EL CALLEJO (1387)","lat":43.2332856797537,"lon":-3.34333751260277},{"id":"1388","nombre":"MANZANEDA (1388)","lat":43.2357378842564,"lon":-3.33001357719912},{"id":"1389","nombre":"EL CERRILLO (1389)","lat":43.2376497611353,"lon":-3.32583649591618},{"id":"1390","nombre":"HERBOSO (1390)","lat":43.2406656473721,"lon":-3.32287201267637},{"id":"1391","nombre":"LAS TORCACHAS (1391)","lat":43.2381782039555,"lon":-3.31716884872282},{"id":"1392","nombre":"EL SUCESO (1392)","lat":43.2432574875412,"lon":-3.30356023536635},{"id":"1393","nombre":"VILLANUEVA (1393)","lat":43.2488112270342,"lon":-3.27574814310561},{"id":"1395","nombre":"LA LLANA (1395)","lat":43.2441020165195,"lon":-3.26419755643711},{"id":"1331","nombre":"LA MATANZA (1331)","lat":43.2445862129892,"lon":-3.26113255564927},{"id":"1337","nombre":"HENALES (1337)","lat":43.2485790041445,"lon":-3.25946198452285},{"id":"1332","nombre":"PALACIO (1332)","lat":43.2563129267434,"lon":-3.26388061769661},{"id":"1295","nombre":"BENIGNO GARAY (1295)","lat":43.266014053796,"lon":-3.25718412931091},{"id":"1333","nombre":"LA PUENTE (1333)","lat":43.269849726248,"lon":-3.2573235060975},{"id":"1294","nombre":"BENIGNO GARAY (1294)","lat":43.2659594165373,"lon":-3.25745498224723},{"id":"1334","nombre":"PALACIO (1334)","lat":43.2561775736356,"lon":-3.26400323303164},{"id":"1394","nombre":"HENALES (1394)","lat":43.2484524924718,"lon":-3.25965854229669},{"id":"1335","nombre":"LA MATANZA (1335)","lat":43.2446850105969,"lon":-3.2612438366181},{"id":"1398","nombre":"LAURETA (1398)","lat":43.2429029814773,"lon":-3.25278655107479},{"id":"1399","nombre":"EL PESO (1399)","lat":43.2428225281044,"lon":-3.2384628124327},{"id":"1400","nombre":"TRASLOSHEROS (1400)","lat":43.2478203664153,"lon":-3.23977400444794},{"id":"1401","nombre":"LA CABAREDA (1401)","lat":43.2513612299051,"lon":-3.23876529339407},{"id":"1402","nombre":"ALISEDO (1402)","lat":43.2533145894171,"lon":-3.23473203667},{"id":"1403","nombre":"LA TEJERA (1403)","lat":43.2566959083,"lon":-3.2324534883636},{"id":"1404","nombre":"LA TOBA (1404)","lat":43.2542977263822,"lon":-3.22486768785006},{"id":"1405","nombre":"SAN MIGUEL (1405)","lat":43.250838336551,"lon":-3.22111001322873},{"id":"1406","nombre":"LA COLORADA (SAN MIGUEL) (1406)","lat":43.2490112056696,"lon":-3.22068457367869},{"id":"1407","nombre":"LA VIA (1407)","lat":43.2441570893965,"lon":-3.22098743088889},{"id":"1408","nombre":"PUENTE ROLANTE (1408)","lat":43.2398661578926,"lon":-3.21727888469905},{"id":"1409","nombre":"TRASLAVIÑA (1409)","lat":43.2413426559967,"lon":-3.21412888751207},{"id":"1410","nombre":"HELECHOSA (1410)","lat":43.2426803105071,"lon":-3.20994779700656},{"id":"1413","nombre":"TRAVESEDO (1413)","lat":43.2346055294444,"lon":-3.20517646151055},{"id":"1414","nombre":"GELTOKIA / LA ESTACIÓN (1414)","lat":43.2331514766773,"lon":-3.20094951430985},{"id":"1415","nombre":"LA HERBOSA (1415)","lat":43.2269722549349,"lon":-3.19160744161196},{"id":"1418","nombre":"EL MAZO (1418)","lat":43.222270439214,"lon":-3.1813851119672},{"id":"1419","nombre":"MALABRIGO (1419)","lat":43.2167402699461,"lon":-3.17643159110394},{"id":"1420","nombre":"RETOLA (1420)","lat":43.2218157960375,"lon":-3.17259223731768},{"id":"1254","nombre":"OTXARAN (1254)","lat":43.2199971480939,"lon":-3.1680293164018},{"id":"1255","nombre":"LA FLOR (EL PARAÍSO) (1255)","lat":43.2198020227704,"lon":-3.15633655725351},{"id":"1256","nombre":"LA LLANA (1256)","lat":43.2168133280916,"lon":-3.14176880601067},{"id":"3721","nombre":"LIGUETI (3721)","lat":43.2153665809286,"lon":-3.13548891593426},{"id":"1207","nombre":"LUSA (1207)","lat":43.2133468602039,"lon":-3.1300182006407}],"1":[{"id":"1206","nombre":"LUSA (1206)","lat":43.213515710509,"lon":-3.13000834088318},{"id":"3724","nombre":"LIGUETI (3724)","lat":43.2154546076467,"lon":-3.13529421526955},{"id":"1271","nombre":"LA LLANA (1271)","lat":43.2169706786385,"lon":-3.14195631429173},{"id":"1272","nombre":"LA FLOR (EL PARAÍSO) (1272)","lat":43.2199684483119,"lon":-3.15645518430663},{"id":"1273","nombre":"OTXARAN (1273)","lat":43.22005150162,"lon":-3.16780783691356},{"id":"1217","nombre":"RETOLA (1217)","lat":43.2219510522187,"lon":-3.17246948794932},{"id":"1218","nombre":"MALABRIGO (1218)","lat":43.2173529883364,"lon":-3.17617480216806},{"id":"1219","nombre":"EL MAZO (1219)","lat":43.222450454997,"lon":-3.18143489840053},{"id":"1220","nombre":"LA HERBOSA (1220)","lat":43.2272241177845,"lon":-3.19176831445167},{"id":"1315","nombre":"GELTOKIA/LA ESTACIÓN (1315)","lat":43.2332245292724,"lon":-3.20037093248863},{"id":"1316","nombre":"TRAVESEDO (1316)","lat":43.2346688711824,"lon":-3.2050042549286},{"id":"1317","nombre":"HELECHOSA (1317)","lat":43.2425662942569,"lon":-3.20976055296925},{"id":"1318","nombre":"TRASLAVIÑA (1318)","lat":43.2414295380517,"lon":-3.21432835783619},{"id":"1319","nombre":"PUENTE ROLANTE (1319)","lat":43.2399740966711,"lon":-3.21734085183621},{"id":"1320","nombre":"LA VIA (1320)","lat":43.2443191252839,"lon":-3.2210126517726},{"id":"1322","nombre":"LA COLORADA (SAN MIGUEL) (1322)","lat":43.248948410828,"lon":-3.22056116172401},{"id":"1323","nombre":"SAN MIGUEL (1323)","lat":43.2510814190528,"lon":-3.22108625466788},{"id":"1324","nombre":"LA TOBA (1324)","lat":43.2543883292086,"lon":-3.22458466992979},{"id":"1325","nombre":"LA TEJERA (1325)","lat":43.2568126677279,"lon":-3.23260177381113},{"id":"1326","nombre":"ALISEDO (1326)","lat":43.2534226558507,"lon":-3.23468317401484},{"id":"1327","nombre":"LA CABAREDA (1327)","lat":43.2513789819502,"lon":-3.23888855287757},{"id":"1328","nombre":"TRASLOSHEROS (1328)","lat":43.2477661321014,"lon":-3.23987233800347},{"id":"1329","nombre":"EL PESO (1329)","lat":43.2423812499178,"lon":-3.23848572574781},{"id":"1330","nombre":"LAURETA (1330)","lat":43.2431014640128,"lon":-3.25261492888947},{"id":"1331","nombre":"LA MATANZA (1331)","lat":43.2445862129892,"lon":-3.26113255564927},{"id":"1337","nombre":"HENALES (1337)","lat":43.2485790041445,"lon":-3.25946198452285},{"id":"1332","nombre":"PALACIO (1332)","lat":43.2563129267434,"lon":-3.26388061769661},{"id":"1295","nombre":"BENIGNO GARAY (1295)","lat":43.266014053796,"lon":-3.25718412931091},{"id":"1333","nombre":"LA PUENTE (1333)","lat":43.269849726248,"lon":-3.2573235060975},{"id":"1294","nombre":"BENIGNO GARAY (1294)","lat":43.2659594165373,"lon":-3.25745498224723},{"id":"1334","nombre":"PALACIO (1334)","lat":43.2561775736356,"lon":-3.26400323303164},{"id":"1394","nombre":"HENALES (1394)","lat":43.2484524924718,"lon":-3.25965854229669},{"id":"1335","nombre":"LA MATANZA (1335)","lat":43.2446850105969,"lon":-3.2612438366181},{"id":"1336","nombre":"LA LLANA (1336)","lat":43.2440410298228,"lon":-3.26185856279184},{"id":"1338","nombre":"VILLANUEVA (1338)","lat":43.2485687262708,"lon":-3.27548836182859},{"id":"1339","nombre":"EL SUCESO (1339)","lat":43.2433021508293,"lon":-3.30369594832579},{"id":"1341","nombre":"LAS TORCACHAS (1341)","lat":43.2386735661149,"lon":-3.31563383263347},{"id":"1342","nombre":"HERBOSO (1342)","lat":43.2408173682734,"lon":-3.32335317215798},{"id":"1343","nombre":"EL CERRILLO (1343)","lat":43.2375142013547,"lon":-3.3260082006022},{"id":"1344","nombre":"MANZANEDA (1344)","lat":43.2364391741066,"lon":-3.3303868416029},{"id":"1345","nombre":"EL CALLEJO (1345)","lat":43.233475514464,"lon":-3.34309227029946},{"id":"1346","nombre":"EL CALLEJO 3 (1346)","lat":43.2334435773459,"lon":-3.34773487116242},{"id":"1347","nombre":"AMBASAGUAS (1347)","lat":43.238032883082,"lon":-3.3575030509221},{"id":"1348","nombre":"CONCHA (1348)","lat":43.2249671434202,"lon":-3.36045561011357},{"id":"1355","nombre":"SOSCAÑO (1355)","lat":43.2237241830331,"lon":-3.36622316471162},{"id":"1356","nombre":"LAS CALLEJUELAS (1356)","lat":43.223539827209,"lon":-3.36755190809287},{"id":"1357","nombre":"TRESPALACIO (1357)","lat":43.2278993837132,"lon":-3.37272534526668},{"id":"1359","nombre":"LLANO (1359)","lat":43.2297350801335,"lon":-3.37586445044779},{"id":"1360","nombre":"OTIDES (1360)","lat":43.2260720455704,"lon":-3.38076738312876},{"id":"1361","nombre":"SAN CIPRIÁN (1361)","lat":43.2219420121651,"lon":-3.39317763823972},{"id":"1367","nombre":"TRETO (1367)","lat":43.2230492551276,"lon":-3.40618734767276},{"id":"1368","nombre":"UBAL MENDATEA/PUERTO UBAL (1368)","lat":43.2180261710444,"lon":-3.41079585777941},{"id":"1307","nombre":"EL PEÑÓN (1307)","lat":43.2174006011609,"lon":-3.4154619059249},{"id":"1369","nombre":"SANGRICES (1369)","lat":43.2145941006111,"lon":-3.42594094789173},{"id":"1370","nombre":"SANDELOLLA (1370)","lat":43.2191517472597,"lon":-3.43044211266837},{"id":"1371","nombre":"LANESTOSA (1371)","lat":43.2203182822163,"lon":-3.43867523094951}]},"A0653":{"0":[{"id":"1425","nombre":"BASINAGRE (1425)","lat":43.2827061588296,"lon":-3.25830208489342},{"id":"1421","nombre":"LA QUINTA (1421)","lat":43.2744321366226,"lon":-3.25774949378253},{"id":"1333","nombre":"LA PUENTE (1333)","lat":43.269849726248,"lon":-3.2573235060975},{"id":"1294","nombre":"BENIGNO GARAY (1294)","lat":43.2659594165373,"lon":-3.25745498224723},{"id":"1334","nombre":"PALACIO (1334)","lat":43.2561775736356,"lon":-3.26400323303164},{"id":"1394","nombre":"HENALES (1394)","lat":43.2484524924718,"lon":-3.25965854229669},{"id":"1335","nombre":"LA MATANZA (1335)","lat":43.2446850105969,"lon":-3.2612438366181},{"id":"1398","nombre":"LAURETA (1398)","lat":43.2429029814773,"lon":-3.25278655107479},{"id":"1399","nombre":"EL PESO (1399)","lat":43.2428225281044,"lon":-3.2384628124327},{"id":"1400","nombre":"TRASLOSHEROS (1400)","lat":43.2478203664153,"lon":-3.23977400444794},{"id":"1401","nombre":"LA CABAREDA (1401)","lat":43.2513612299051,"lon":-3.23876529339407},{"id":"1402","nombre":"ALISEDO (1402)","lat":43.2533145894171,"lon":-3.23473203667},{"id":"1397","nombre":"SANTA CRUZ (1397)","lat":43.2659483152429,"lon":-3.23324230194089},{"id":"1403","nombre":"LA TEJERA (1403)","lat":43.2566959083,"lon":-3.2324534883636},{"id":"1404","nombre":"LA TOBA (1404)","lat":43.2542977263822,"lon":-3.22486768785006},{"id":"1405","nombre":"SAN MIGUEL (1405)","lat":43.250838336551,"lon":-3.22111001322873},{"id":"1406","nombre":"LA COLORADA (SAN MIGUEL) (1406)","lat":43.2490112056696,"lon":-3.22068457367869},{"id":"1407","nombre":"LA VIA (1407)","lat":43.2441570893965,"lon":-3.22098743088889},{"id":"1408","nombre":"PUENTE ROLANTE (1408)","lat":43.2398661578926,"lon":-3.21727888469905},{"id":"1409","nombre":"TRASLAVIÑA (1409)","lat":43.2413426559967,"lon":-3.21412888751207}],"1":[{"id":"1318","nombre":"TRASLAVIÑA (1318)","lat":43.2414295380517,"lon":-3.21432835783619},{"id":"1319","nombre":"PUENTE ROLANTE (1319)","lat":43.2399740966711,"lon":-3.21734085183621},{"id":"1320","nombre":"LA VIA (1320)","lat":43.2443191252839,"lon":-3.2210126517726},{"id":"1322","nombre":"LA COLORADA (SAN MIGUEL) (1322)","lat":43.248948410828,"lon":-3.22056116172401},{"id":"1323","nombre":"SAN MIGUEL (1323)","lat":43.2510814190528,"lon":-3.22108625466788},{"id":"1324","nombre":"LA TOBA (1324)","lat":43.2543883292086,"lon":-3.22458466992979},{"id":"1397","nombre":"SANTA CRUZ (1397)","lat":43.2659483152429,"lon":-3.23324230194089},{"id":"1325","nombre":"LA TEJERA (1325)","lat":43.2568126677279,"lon":-3.23260177381113},{"id":"1326","nombre":"ALISEDO (1326)","lat":43.2534226558507,"lon":-3.23468317401484},{"id":"1327","nombre":"LA CABAREDA (1327)","lat":43.2513789819502,"lon":-3.23888855287757},{"id":"1328","nombre":"TRASLOSHEROS (1328)","lat":43.2477661321014,"lon":-3.23987233800347},{"id":"1329","nombre":"EL PESO (1329)","lat":43.2423812499178,"lon":-3.23848572574781},{"id":"1330","nombre":"LAURETA (1330)","lat":43.2431014640128,"lon":-3.25261492888947},{"id":"1331","nombre":"LA MATANZA (1331)","lat":43.2445862129892,"lon":-3.26113255564927},{"id":"1337","nombre":"HENALES (1337)","lat":43.2485790041445,"lon":-3.25946198452285},{"id":"1332","nombre":"PALACIO (1332)","lat":43.2563129267434,"lon":-3.26388061769661},{"id":"1295","nombre":"BENIGNO GARAY (1295)","lat":43.266014053796,"lon":-3.25718412931091},{"id":"1340","nombre":"LA PUENTE (1340)","lat":43.2697242717302,"lon":-3.25705187792815},{"id":"1422","nombre":"LA QUINTA (1422)","lat":43.2737488992097,"lon":-3.25725366933667},{"id":"1425","nombre":"BASINAGRE (1425)","lat":43.2827061588296,"lon":-3.25830208489342}]},"A0654":{"0":[{"id":"1263","nombre":"CAMPO DE LAS MONJAS (1263)","lat":43.1931246859101,"lon":-3.19787546444696},{"id":"3506","nombre":"AVDA. ENCARTACIONES (3506)","lat":43.1902000890309,"lon":-3.20021782764142},{"id":"3507","nombre":"LA PENILLA (3507)","lat":43.1867842021353,"lon":-3.20318607317584},{"id":"4293","nombre":"INSTITUTUA/INSTITUTO (4293)","lat":43.1913640350125,"lon":-3.18998090569849},{"id":"1225","nombre":"GALLARDI (1225)","lat":43.2061235895428,"lon":-3.12931559652458},{"id":"6024","nombre":"LANZAGORTA (6024)","lat":43.212622242213,"lon":-3.13175463551635},{"id":"1207","nombre":"LUSA (1207)","lat":43.2133468602039,"lon":-3.1300182006407},{"id":"1208","nombre":"ARANGUREN (1208)","lat":43.2107133843449,"lon":-3.11490930963123},{"id":"1209","nombre":"ARANGOITI (ZALLA) (1209)","lat":43.211911101643,"lon":-3.10769517692665},{"id":"1210","nombre":"ARANGOITI (GUEÑES) (1210)","lat":43.2127351731823,"lon":-3.10264901925401},{"id":"1211","nombre":"EUSKADI PLAZA (1211)","lat":43.2124710425218,"lon":-3.09560657829597},{"id":"1212","nombre":"UDALETXEA / AYUNTAMIENTO (1212)","lat":43.2097613720288,"lon":-3.09469135853741},{"id":"1227","nombre":"LASIER (1227)","lat":43.2063432425088,"lon":-3.08758532106461},{"id":"1213","nombre":"LAMBARRI (1213)","lat":43.2062942070896,"lon":-3.08343483041549},{"id":"1214","nombre":"ARTXUBE (1214)","lat":43.2012035505727,"lon":-3.07173638872564},{"id":"1215","nombre":"ZERIBAI (1215)","lat":43.1989722040055,"lon":-3.05528756402918},{"id":"1216","nombre":"SODUPE (GELTOKIA/ESTACIÓN) (1216)","lat":43.2022234332684,"lon":-3.05049203339448},{"id":"1563","nombre":"IORGI (1563)","lat":43.2067909894214,"lon":-3.04538713233702},{"id":"1564","nombre":"OLABARRIETA (LAS JARRETAS) (1564)","lat":43.2097387099719,"lon":-3.04106582235672},{"id":"1565","nombre":"LAKABEX (IBERDROLA) (1565)","lat":43.2180176315452,"lon":-3.02884501547595},{"id":"1566","nombre":"LA CUADRA (1566)","lat":43.2231602938261,"lon":-3.0247716022103},{"id":"1567","nombre":"LAZKAO (KILÓMETRO 11) (1567)","lat":43.2291679976746,"lon":-3.01546399164461},{"id":"1568","nombre":"ZARAMILLO (1568)","lat":43.2332471676723,"lon":-3.01455356262479},{"id":"1569","nombre":"NUESTRA SEÑORA DE LA GUÍA (1569)","lat":43.2354626065328,"lon":-3.01217713776433},{"id":"1570","nombre":"ARBUIO (1570)","lat":43.2361924101192,"lon":-3.00720151176132},{"id":"1571","nombre":"KORTATXU (1571)","lat":43.2381184704979,"lon":-3.0010592059896},{"id":"1572","nombre":"ALDANONDO (ELKARTEGIA) (1572)","lat":43.2413970611261,"lon":-2.99476182236414},{"id":"1573","nombre":"LOIBE (1573)","lat":43.2435310014865,"lon":-2.99178069612552},{"id":"1574","nombre":"LASAO (1574)","lat":43.2453584119617,"lon":-2.98690259880179},{"id":"401","nombre":"LA PAZ 14 (ANBULATORIOA) (401)","lat":43.2803323370308,"lon":-2.98643834000568}],"1":[{"id":"401","nombre":"LA PAZ 14 (ANBULATORIOA) (401)","lat":43.2803323370308,"lon":-2.98643834000568},{"id":"1518","nombre":"LASAO (1518)","lat":43.2454386013946,"lon":-2.987324959784},{"id":"1519","nombre":"LOIBE (1519)","lat":43.2442413284418,"lon":-2.99105743538411},{"id":"1520","nombre":"ALDANONDO (ELKARTEGIA) (1520)","lat":43.2414781074244,"lon":-2.99484803459893},{"id":"1521","nombre":"KORTATXU (1521)","lat":43.2380644374073,"lon":-3.00149027687785},{"id":"1522","nombre":"ARBUIO (1522)","lat":43.2362464210464,"lon":-3.00747246949851},{"id":"1523","nombre":"NUESTRA SEÑORA DE LA GUÍA (1523)","lat":43.2355706657728,"lon":-3.01215252760949},{"id":"1524","nombre":"ZARAMILLO (1524)","lat":43.2329590259406,"lon":-3.01447960220248},{"id":"1525","nombre":"LAZKAO (KILÓMETRO 11) (1525)","lat":43.2292490151107,"lon":-3.01564873056665},{"id":"1526","nombre":"LA CUADRA (1526)","lat":43.2242049462589,"lon":-3.02429167369978},{"id":"1527","nombre":"LAKABEX (IBERDROLA) (1527)","lat":43.2182517920701,"lon":-3.02869737766194},{"id":"1528","nombre":"OLABARRIETA (LAS JARRETAS) (1528)","lat":43.2095404855224,"lon":-3.04139807548599},{"id":"1529","nombre":"IORGI (1529)","lat":43.2059621414447,"lon":-3.04640823764481},{"id":"1197","nombre":"SODUPE (GELTOKIA/ESTACIÓN) (1197)","lat":43.2021602745983,"lon":-3.050775090903},{"id":"1198","nombre":"ZERIBAI (1198)","lat":43.1990531874076,"lon":-3.05541072202867},{"id":"1199","nombre":"ARTXUBE (1199)","lat":43.2008367386184,"lon":-3.07094622339227},{"id":"1200","nombre":"LAMBARRI (1200)","lat":43.2064113586144,"lon":-3.08331189041204},{"id":"1226","nombre":"LASIER (1226)","lat":43.2064961818176,"lon":-3.08777018963379},{"id":"1201","nombre":"UDALETXEA / AYUNTAMIENTO (1201)","lat":43.209939484189,"lon":-3.09469372688583},{"id":"1202","nombre":"EUSKADI PLAZA (1202)","lat":43.2126421429135,"lon":-3.09559453434634},{"id":"1203","nombre":"ARANGOITI (GUEÑES) (1203)","lat":43.2128699677141,"lon":-3.10295702695949},{"id":"1204","nombre":"ARANGOITI (ZALLA) (1204)","lat":43.2119740188662,"lon":-3.10781839848269},{"id":"1205","nombre":"ARANGUREN (1205)","lat":43.2112545064712,"lon":-3.11407318157218},{"id":"1225","nombre":"GALLARDI (1225)","lat":43.2061235895428,"lon":-3.12931559652458},{"id":"6024","nombre":"LANZAGORTA (6024)","lat":43.212622242213,"lon":-3.13175463551635},{"id":"1207","nombre":"LUSA (1207)","lat":43.2133468602039,"lon":-3.1300182006407},{"id":"4292","nombre":"INSTITUTUA/INSTITUTO (4292)","lat":43.1913356691451,"lon":-3.19079307529946},{"id":"3504","nombre":"LA PENILLA (3504)","lat":43.1866071429937,"lon":-3.20299720438432},{"id":"3505","nombre":"AVDA. ENCARTACIONES (3505)","lat":43.1902635311337,"lon":-3.19998420738789},{"id":"1263","nombre":"CAMPO DE LAS MONJAS (1263)","lat":43.1931246859101,"lon":-3.19787546444696}]},"A2151":{"0":[{"id":"1","nombre":"BIZKAIA ZUBIA/PUENTE BIZKAIA (1)","lat":43.3239867296496,"lon":-3.01547359044326},{"id":"1479","nombre":"ZUGAZARTE 2 (MARÍTIMO) (1479)","lat":43.3274985733975,"lon":-3.01503032038173},{"id":"1480","nombre":"ZUGAZARTE 38 (REPARADORAS) (1480)","lat":43.3317941384901,"lon":-3.01173774145667},{"id":"1481","nombre":"ZUGAZARTE 54 (TRIÁNGULO) (1481)","lat":43.3358913101708,"lon":-3.00976463268512},{"id":"40","nombre":"LA AVANZADA 28 (ANTIGUO GOLF) (40)","lat":43.3337936040308,"lon":-3.0037076078361},{"id":"41","nombre":"ARTATZA (SUHILTZAILEAK/BOMBEROS) (41)","lat":43.3299935936651,"lon":-2.99650379675314},{"id":"42","nombre":"ONDIZ (42)","lat":43.3274630268936,"lon":-2.99123715946542},{"id":"43","nombre":"ELEXALDE (SAKONETA) (43)","lat":43.3258238985439,"lon":-2.98798132831635},{"id":"84","nombre":"DONIBANE/SAN JUAN (KONTSERBATORIOA) (84)","lat":43.3239414049317,"lon":-2.98429393133266},{"id":"85","nombre":"SANTIMAMI (EROSKI) (85)","lat":43.3185140924521,"lon":-2.97363135193959},{"id":"3553","nombre":"LA AVANZADA (ERTZAINTZA) (3553)","lat":43.3091628326488,"lon":-2.95874510750042},{"id":"150","nombre":"ERANDIOGOIKOA (150)","lat":43.3072472054774,"lon":-2.95316447778739},{"id":"838","nombre":"ASUA (LA AVANZADA 9) (838)","lat":43.3026788029429,"lon":-2.94638695288599},{"id":"839","nombre":"ASUA PLAZA (SANGRONIZ) (839)","lat":43.3003349649131,"lon":-2.94102594108109},{"id":"840","nombre":"SAN JUAN (840)","lat":43.2993913130226,"lon":-2.92859951474827},{"id":"841","nombre":"BASOZABAL (841)","lat":43.2987890869372,"lon":-2.92331754322984},{"id":"842","nombre":"BERRETEAGA (842)","lat":43.2979981935457,"lon":-2.91910837927805},{"id":"843","nombre":"LARRONDO (ELOTXELERRI) (843)","lat":43.2970664088254,"lon":-2.91322904458974},{"id":"844","nombre":"LARRABARRI (OLARRA) (844)","lat":43.2955391943101,"lon":-2.90633990319119},{"id":"845","nombre":"ELOTXELERRI  (NAFRISA) (845)","lat":43.2943279636365,"lon":-2.90086826980178},{"id":"846","nombre":"HILERRIA/CEMENTERIO (846)","lat":43.292582943165,"lon":-2.89305557527028},{"id":"847","nombre":"UDALETXEA/AYUNTAMIENTO (847)","lat":43.2908210786389,"lon":-2.88685831635447},{"id":"849","nombre":"LEKUNBIZ (849)","lat":43.2878753662597,"lon":-2.87714294526127},{"id":"850","nombre":"DOMARTIENA (850)","lat":43.2861668834285,"lon":-2.87097868156857},{"id":"851","nombre":"ARTEAGA (851)","lat":43.284213615738,"lon":-2.86399885439342},{"id":"852","nombre":"LARRAGOITI (852)","lat":43.2809533334021,"lon":-2.85600264210084},{"id":"899","nombre":"TEKNOLOGIA-PARKEA (ARTEAGA) (899)","lat":43.285449239504,"lon":-2.8580749902505},{"id":"915","nombre":"TEKNOLOGIA-PARKEA (INNOBASQUE) (915)","lat":43.2915045493647,"lon":-2.86157278224743},{"id":"3380","nombre":"TEKNOLOGIA-PARKEA (EDIFICIO BARCO) (3380)","lat":43.289053196933,"lon":-2.8598539707822},{"id":"900","nombre":"TEKNOLOGIA-PARKEA (ARTEAGA) (900)","lat":43.2855131565529,"lon":-2.85878974407964},{"id":"853","nombre":"KURUTZEA/LA CRUZ (853)","lat":43.2765180082782,"lon":-2.84538197306887},{"id":"854","nombre":"UZABAL (ATHLETIC) (854)","lat":43.2758301465966,"lon":-2.84280800933836},{"id":"855","nombre":"ELEXALDE (855)","lat":43.2736370497291,"lon":-2.83276568340284},{"id":"856","nombre":"IBERRE (856)","lat":43.2702178782907,"lon":-2.82271161753587},{"id":"857","nombre":"TXAKOLI LOROÑO (857)","lat":43.2679456807616,"lon":-2.81763844371096},{"id":"858","nombre":"BERRESONAGA (MIRASOL) (858)","lat":43.2648005282959,"lon":-2.80811377632133},{"id":"859","nombre":"KIZKIBIL (VISTA ALEGRE) (859)","lat":43.2632870661737,"lon":-2.80242603519951},{"id":"860","nombre":"LARRABETZU (860)","lat":43.2617549028109,"lon":-2.7962048876893},{"id":"861","nombre":"GOIKOLA (861)","lat":43.2658679423213,"lon":-2.79006704157447},{"id":"862","nombre":"GOIKOLEXEA (862)","lat":43.2670912398568,"lon":-2.78450553306309}],"1":[{"id":"862","nombre":"GOIKOLEXEA (862)","lat":43.2670912398568,"lon":-2.78450553306309},{"id":"864","nombre":"GOIKOLA (864)","lat":43.2659685952185,"lon":-2.7909415546288},{"id":"865","nombre":"LARRABETZU (865)","lat":43.2621053798866,"lon":-2.79580944097871},{"id":"866","nombre":"KIZKIBIL (VISTA ALEGRE) (866)","lat":43.2632590933318,"lon":-2.80187166216394},{"id":"867","nombre":"BERRESONAGA (MIRASOL) (867)","lat":43.2648357396914,"lon":-2.8076331182862},{"id":"868","nombre":"TXAKOLI LOROÑO (868)","lat":43.267976161514,"lon":-2.8172716391907},{"id":"869","nombre":"IBERRE (869)","lat":43.2707877734148,"lon":-2.82439820488165},{"id":"870","nombre":"ELEXALDE (870)","lat":43.2739889494956,"lon":-2.8332576628888},{"id":"871","nombre":"UZABAL (ATHLETIC) (871)","lat":43.2759325433155,"lon":-2.84177302530015},{"id":"872","nombre":"KURUTZEA/LA CRUZ (872)","lat":43.2766981340082,"lon":-2.84540616525442},{"id":"899","nombre":"TEKNOLOGIA-PARKEA (ARTEAGA) (899)","lat":43.285449239504,"lon":-2.8580749902505},{"id":"915","nombre":"TEKNOLOGIA-PARKEA (INNOBASQUE) (915)","lat":43.2915045493647,"lon":-2.86157278224743},{"id":"3380","nombre":"TEKNOLOGIA-PARKEA (EDIFICIO BARCO) (3380)","lat":43.289053196933,"lon":-2.8598539707822},{"id":"900","nombre":"TEKNOLOGIA-PARKEA (ARTEAGA) (900)","lat":43.2855131565529,"lon":-2.85878974407964},{"id":"873","nombre":"LARRAGOITI (873)","lat":43.2809886523513,"lon":-2.85544793424122},{"id":"874","nombre":"ARTEAGA (874)","lat":43.2846648691021,"lon":-2.86486065044229},{"id":"875","nombre":"DOMARTIENA (875)","lat":43.2861934238118,"lon":-2.87055954006305},{"id":"876","nombre":"LEKUNBIZ (876)","lat":43.287513207958,"lon":-2.87515445451752},{"id":"878","nombre":"UDALETXEA/AYUNTAMIENTO (878)","lat":43.2911639224238,"lon":-2.88753554508421},{"id":"879","nombre":"HILERRIA/CEMENTERIO (879)","lat":43.2927633116415,"lon":-2.89335111607784},{"id":"880","nombre":"ELOTXELERRI  (NAFRISA) (880)","lat":43.2945262785091,"lon":-2.90111450217892},{"id":"881","nombre":"LARRABARRI (OLARRA) (881)","lat":43.2955928374416,"lon":-2.90587135911417},{"id":"882","nombre":"LARRONDO (ELOTXELERRI) (882)","lat":43.2971381175797,"lon":-2.9127974537677},{"id":"883","nombre":"BERRETEAGA (883)","lat":43.298060849699,"lon":-2.91857817331639},{"id":"884","nombre":"BASOZABAL (884)","lat":43.2989195006597,"lon":-2.92308929999851},{"id":"885","nombre":"SAN JUAN (885)","lat":43.2995531954738,"lon":-2.9282787780495},{"id":"886","nombre":"ASUA PLAZA (SANGRONIZ) (886)","lat":43.3007849125846,"lon":-2.94135099153983},{"id":"146","nombre":"ASUA (LA AVANZADA 12) (146)","lat":43.3039132358219,"lon":-2.94812434490884},{"id":"147","nombre":"ERANDIOGOIKOA (147)","lat":43.3081076682253,"lon":-2.95445974958245},{"id":"3552","nombre":"LA AVANZADA (ERTZAINTZA) (3552)","lat":43.3102848983743,"lon":-2.96159648822203},{"id":"71","nombre":"SANTIMAMI (EROSKI) (71)","lat":43.3191912984172,"lon":-2.9738974456641},{"id":"11","nombre":"DONIBANE/SAN JUAN (KONTSERBATORIOA) (11)","lat":43.3238241584176,"lon":-2.98298659476083},{"id":"12","nombre":"ELEXALDE (AUZO ETXEA/CENTRO CÍVICO) (12)","lat":43.3257696561667,"lon":-2.98684648376494},{"id":"13","nombre":"ONDIZ (13)","lat":43.3278682202758,"lon":-2.99107675314668},{"id":"56","nombre":"LA AVANZADA 11 (ANTIGUO GOLF) (56)","lat":43.3344238970429,"lon":-3.00444767044962},{"id":"1463","nombre":"ZUGAZARTE (TRIÁNGULO) (1463)","lat":43.3370069850242,"lon":-3.00964699963164},{"id":"1464","nombre":"ZUGAZARTE 35 (REPARADORAS) (1464)","lat":43.331469921077,"lon":-3.01224342205108},{"id":"1476","nombre":"AREETA 9 (ELIZA/IGLESIA) (1476)","lat":43.326742094675,"lon":-3.0157331854981},{"id":"4156","nombre":"BIZKAIA ZUBIA/PUENTE BIZKAIA (4156)","lat":43.3238192304252,"lon":-3.01557715057321}]},"A2153":{"0":[{"id":"127","nombre":"SAN JOSÉ PLAZA (ELCANO 5) (127)","lat":43.2639983899594,"lon":-2.93560331451549},{"id":"949","nombre":"MUSEO PLAZA (949)","lat":43.2658991635199,"lon":-2.93701833489073},{"id":"806","nombre":"DEUSTUKO UNIBERTSITATEA (PÍO X PLAZA) (806)","lat":43.2709800352779,"lon":-2.94122742945928},{"id":"129","nombre":"SAN PEDRO PLAZA (129)","lat":43.2719904972641,"lon":-2.94513290408517},{"id":"808","nombre":"IBARREKOLANDA (808)","lat":43.2732545943036,"lon":-2.95285856010342},{"id":"810","nombre":"ENEKURI (810)","lat":43.2895019164676,"lon":-2.96063612597737},{"id":"837","nombre":"FAOETA (837)","lat":43.294757285412,"lon":-2.95321610175083},{"id":"686","nombre":"ASUA (686)","lat":43.3043715358195,"lon":-2.9461018819188},{"id":"687","nombre":"URIBENA (687)","lat":43.3098150335743,"lon":-2.94283298200503},{"id":"688","nombre":"UDALETXEA/AYUNTAMIENTO (688)","lat":43.3142731418135,"lon":-2.93937826565927},{"id":"689","nombre":"LANDATXUETA (689)","lat":43.3122079519905,"lon":-2.9352949589534},{"id":"690","nombre":"AZOKA / FERIAL (690)","lat":43.3113520456564,"lon":-2.92991333043479},{"id":"691","nombre":"LARRAKOETXE (691)","lat":43.3129119150098,"lon":-2.92212176647021},{"id":"692","nombre":"LAUROETA (URDANETA) (692)","lat":43.3175829392429,"lon":-2.91911187881029},{"id":"693","nombre":"LAUROETA  (HARITZMENDI) (693)","lat":43.3233428342067,"lon":-2.912300557471},{"id":"694","nombre":"LAUROETA (MUNABE) (694)","lat":43.3244013150428,"lon":-2.90963050151687},{"id":"695","nombre":"LAUROETA (GOZKOETXE) (695)","lat":43.3279689443862,"lon":-2.9050930290094},{"id":"696","nombre":"LAUROETA (AURREKOETXE) (696)","lat":43.3315511314327,"lon":-2.90432377836334},{"id":"697","nombre":"MIKEL DEUNAREN ENPARANTZA (697)","lat":43.3342807208168,"lon":-2.90150188151376},{"id":"698","nombre":"LAUROETA (AURREKOETXE) (698)","lat":43.331661083927,"lon":-2.90443955696133},{"id":"699","nombre":"LAUROETA (GOZKOETXE) (699)","lat":43.3285037301351,"lon":-2.90498969589487},{"id":"700","nombre":"LAUROETA (MUNABE) (700)","lat":43.3245274958192,"lon":-2.90977831996077},{"id":"701","nombre":"LAUROETA (HARITZMENDI) (701)","lat":43.323314396784,"lon":-2.91279394017186},{"id":"702","nombre":"LAUROETA (URDANETA) (702)","lat":43.3173845155248,"lon":-2.91840389540434},{"id":"703","nombre":"IBERRE (703)","lat":43.3126994866175,"lon":-2.91502433152967},{"id":"704","nombre":"LA MERCED (IKASTETXEA/COLEGIO) (704)","lat":43.3130917239222,"lon":-2.90516822169977},{"id":"705","nombre":"AYALDE (705)","lat":43.3104998360823,"lon":-2.89957153257258},{"id":"1003","nombre":"AIREPORTUA/AEROPUERTO (ETORRERAK/LLEGADAS) (1003)","lat":43.3054343108299,"lon":-2.90528875239116},{"id":"706","nombre":"AIARTZA (706)","lat":43.3067133344472,"lon":-2.89557563411287},{"id":"723","nombre":"GANBE (723)","lat":43.3022516755526,"lon":-2.89088581270405},{"id":"928","nombre":"ALDEKONE (928)","lat":43.2984201061895,"lon":-2.88606728490792},{"id":"929","nombre":"MUNGIALDE ETORBIDEA 1 (929)","lat":43.2917773935006,"lon":-2.88871782299092},{"id":"847","nombre":"UDALETXEA/AYUNTAMIENTO (847)","lat":43.2908210786389,"lon":-2.88685831635447},{"id":"849","nombre":"LEKUNBIZ (849)","lat":43.2878753662597,"lon":-2.87714294526127},{"id":"850","nombre":"DOMARTIENA (850)","lat":43.2861668834285,"lon":-2.87097868156857},{"id":"851","nombre":"ARTEAGA (851)","lat":43.284213615738,"lon":-2.86399885439342},{"id":"852","nombre":"LARRAGOITI (852)","lat":43.2809533334021,"lon":-2.85600264210084},{"id":"899","nombre":"TEKNOLOGIA-PARKEA (ARTEAGA) (899)","lat":43.285449239504,"lon":-2.8580749902505},{"id":"915","nombre":"TEKNOLOGIA-PARKEA (INNOBASQUE) (915)","lat":43.2915045493647,"lon":-2.86157278224743},{"id":"3380","nombre":"TEKNOLOGIA-PARKEA (EDIFICIO BARCO) (3380)","lat":43.289053196933,"lon":-2.8598539707822},{"id":"900","nombre":"TEKNOLOGIA-PARKEA (ARTEAGA) (900)","lat":43.2855131565529,"lon":-2.85878974407964},{"id":"853","nombre":"KURUTZEA/LA CRUZ (853)","lat":43.2765180082782,"lon":-2.84538197306887},{"id":"854","nombre":"UZABAL (ATHLETIC) (854)","lat":43.2758301465966,"lon":-2.84280800933836},{"id":"855","nombre":"ELEXALDE (855)","lat":43.2736370497291,"lon":-2.83276568340284},{"id":"856","nombre":"IBERRE (856)","lat":43.2702178782907,"lon":-2.82271161753587},{"id":"857","nombre":"TXAKOLI LOROÑO (857)","lat":43.2679456807616,"lon":-2.81763844371096},{"id":"858","nombre":"BERRESONAGA (MIRASOL) (858)","lat":43.2648005282959,"lon":-2.80811377632133},{"id":"859","nombre":"KIZKIBIL (VISTA ALEGRE) (859)","lat":43.2632870661737,"lon":-2.80242603519951},{"id":"860","nombre":"LARRABETZU (860)","lat":43.2617549028109,"lon":-2.7962048876893}],"1":[{"id":"865","nombre":"LARRABETZU (865)","lat":43.2621053798866,"lon":-2.79580944097871},{"id":"866","nombre":"KIZKIBIL (VISTA ALEGRE) (866)","lat":43.2632590933318,"lon":-2.80187166216394},{"id":"867","nombre":"BERRESONAGA (MIRASOL) (867)","lat":43.2648357396914,"lon":-2.8076331182862},{"id":"868","nombre":"TXAKOLI LOROÑO (868)","lat":43.267976161514,"lon":-2.8172716391907},{"id":"869","nombre":"IBERRE (869)","lat":43.2707877734148,"lon":-2.82439820488165},{"id":"870","nombre":"ELEXALDE (870)","lat":43.2739889494956,"lon":-2.8332576628888},{"id":"871","nombre":"UZABAL (ATHLETIC) (871)","lat":43.2759325433155,"lon":-2.84177302530015},{"id":"872","nombre":"KURUTZEA/LA CRUZ (872)","lat":43.2766981340082,"lon":-2.84540616525442},{"id":"899","nombre":"TEKNOLOGIA-PARKEA (ARTEAGA) (899)","lat":43.285449239504,"lon":-2.8580749902505},{"id":"915","nombre":"TEKNOLOGIA-PARKEA (INNOBASQUE) (915)","lat":43.2915045493647,"lon":-2.86157278224743},{"id":"3380","nombre":"TEKNOLOGIA-PARKEA (EDIFICIO BARCO) (3380)","lat":43.289053196933,"lon":-2.8598539707822},{"id":"900","nombre":"TEKNOLOGIA-PARKEA (ARTEAGA) (900)","lat":43.2855131565529,"lon":-2.85878974407964},{"id":"873","nombre":"LARRAGOITI (873)","lat":43.2809886523513,"lon":-2.85544793424122},{"id":"874","nombre":"ARTEAGA (874)","lat":43.2846648691021,"lon":-2.86486065044229},{"id":"875","nombre":"DOMARTIENA (875)","lat":43.2861934238118,"lon":-2.87055954006305},{"id":"876","nombre":"LEKUNBIZ (876)","lat":43.287513207958,"lon":-2.87515445451752},{"id":"878","nombre":"UDALETXEA/AYUNTAMIENTO (878)","lat":43.2911639224238,"lon":-2.88753554508421},{"id":"910","nombre":"MUNGIALDE ETORBIDEA 4 (910)","lat":43.2922812432667,"lon":-2.88829777711023},{"id":"911","nombre":"ALDEKONE (911)","lat":43.2983208835284,"lon":-2.88589487128642},{"id":"724","nombre":"GANBE (724)","lat":43.3022785009939,"lon":-2.89068849607068},{"id":"722","nombre":"AIARTZA (722)","lat":43.3060551512953,"lon":-2.89465200666591},{"id":"1003","nombre":"AIREPORTUA/AEROPUERTO (ETORRERAK/LLEGADAS) (1003)","lat":43.3054343108299,"lon":-2.90528875239116},{"id":"708","nombre":"AYALDE (708)","lat":43.3102821517507,"lon":-2.89880737462262},{"id":"709","nombre":"LA MERCED (IKASTETXEA/COLEGIO) (709)","lat":43.3125558309108,"lon":-2.90394578314343},{"id":"710","nombre":"IBERRE (710)","lat":43.3129168709466,"lon":-2.91407796041774},{"id":"691","nombre":"LARRAKOETXE (691)","lat":43.3129119150098,"lon":-2.92212176647021},{"id":"692","nombre":"LAUROETA (URDANETA) (692)","lat":43.3175829392429,"lon":-2.91911187881029},{"id":"693","nombre":"LAUROETA  (HARITZMENDI) (693)","lat":43.3233428342067,"lon":-2.912300557471},{"id":"694","nombre":"LAUROETA (MUNABE) (694)","lat":43.3244013150428,"lon":-2.90963050151687},{"id":"695","nombre":"LAUROETA (GOZKOETXE) (695)","lat":43.3279689443862,"lon":-2.9050930290094},{"id":"696","nombre":"LAUROETA (AURREKOETXE) (696)","lat":43.3315511314327,"lon":-2.90432377836334},{"id":"697","nombre":"MIKEL DEUNAREN ENPARANTZA (697)","lat":43.3342807208168,"lon":-2.90150188151376},{"id":"698","nombre":"LAUROETA (AURREKOETXE) (698)","lat":43.331661083927,"lon":-2.90443955696133},{"id":"699","nombre":"LAUROETA (GOZKOETXE) (699)","lat":43.3285037301351,"lon":-2.90498969589487},{"id":"700","nombre":"LAUROETA (MUNABE) (700)","lat":43.3245274958192,"lon":-2.90977831996077},{"id":"701","nombre":"LAUROETA (HARITZMENDI) (701)","lat":43.323314396784,"lon":-2.91279394017186},{"id":"702","nombre":"LAUROETA (URDANETA) (702)","lat":43.3173845155248,"lon":-2.91840389540434},{"id":"711","nombre":"LARRAKOETXE (711)","lat":43.311767189583,"lon":-2.92309616057846},{"id":"712","nombre":"AZOKA / FERIAL (712)","lat":43.3114523519199,"lon":-2.92902907198682},{"id":"713","nombre":"LANDATXUETA (713)","lat":43.3123808296827,"lon":-2.93527627854846},{"id":"714","nombre":"UDALETXEA/AYUNTAMIENTO (714)","lat":43.3143891601858,"lon":-2.93911301792163},{"id":"715","nombre":"URIBENA (715)","lat":43.3096873121438,"lon":-2.94312164218438},{"id":"887","nombre":"ASUA (INBISA) (887)","lat":43.3024542250643,"lon":-2.94754610703756},{"id":"888","nombre":"FAOETA (888)","lat":43.2950911604092,"lon":-2.95361785667435},{"id":"889","nombre":"ENEKURI (889)","lat":43.289196019445,"lon":-2.96140057552057},{"id":"890","nombre":"IBARREKOLANDA (890)","lat":43.2732998999016,"lon":-2.95354863781794},{"id":"167","nombre":"SAN PEDRO PLAZA (167)","lat":43.2715752256153,"lon":-2.94406548114299},{"id":"168","nombre":"MUSEO PLAZA (168)","lat":43.2660614706448,"lon":-2.93742479290985},{"id":"127","nombre":"SAN JOSÉ PLAZA (ELCANO 5) (127)","lat":43.2639983899594,"lon":-2.93560331451549}]},"A2161":{"0":[{"id":"1","nombre":"BIZKAIA ZUBIA/PUENTE BIZKAIA (1)","lat":43.3239867296496,"lon":-3.01547359044326},{"id":"4","nombre":"EDUARDO COSTE (4)","lat":43.3208166042736,"lon":-3.01140806244089},{"id":"5","nombre":"AMAIA 22 (5)","lat":43.3226816180639,"lon":-3.00961488579527},{"id":"6","nombre":"AMAIA (ANBULATORIOA) (6)","lat":43.3243206061316,"lon":-3.0075552848064},{"id":"7","nombre":"LAMIAKO (METRO) (7)","lat":43.321546540272,"lon":-3.00097432186212},{"id":"20","nombre":"LANGILERIA (TXOPOETA/LA CHOPERA) (20)","lat":43.3194221486105,"lon":-2.99466706859767},{"id":"8","nombre":"ITURRIONDO (METRO LEIOA) (8)","lat":43.3184503206873,"lon":-2.99095875223417},{"id":"9","nombre":"UDONDO (9)","lat":43.3200877603876,"lon":-2.98679862461628},{"id":"4129","nombre":"LUIS BILBAO LIBANO (4129)","lat":43.3229781238703,"lon":-2.98589753158437},{"id":"12","nombre":"ELEXALDE (AUZO ETXEA/CENTRO CÍVICO) (12)","lat":43.3257696561667,"lon":-2.98684648376494},{"id":"13","nombre":"ONDIZ (13)","lat":43.3278682202758,"lon":-2.99107675314668},{"id":"14","nombre":"ARTATZAGANE  (FARMAZIA) (14)","lat":43.3324775656445,"lon":-2.98897215254068},{"id":"15","nombre":"ALDEKOENA (15)","lat":43.3331622107629,"lon":-2.98522880953395},{"id":"16","nombre":"SARRIENA (IRLANDESAS) (16)","lat":43.3336570997499,"lon":-2.98265054113283},{"id":"17","nombre":"J.M. BARANDIARAN (INSTITUTUA) (17)","lat":43.3338259370983,"lon":-2.97448982879328},{"id":"3762","nombre":"EHU LABOA PLAZA (3762)","lat":43.3303845276464,"lon":-2.96787972192554}],"1":[{"id":"3762","nombre":"EHU LABOA PLAZA (3762)","lat":43.3303845276464,"lon":-2.96787972192554},{"id":"22","nombre":"J.M. BARANDIARAN (INSTITUTUA) (22)","lat":43.3338624900959,"lon":-2.97406484931442},{"id":"23","nombre":"SARRIENA (IRLANDESAS) (23)","lat":43.3337831804183,"lon":-2.98276152621791},{"id":"4295","nombre":"ALDEKOENA (4295)","lat":43.3332882278992,"lon":-2.98487104763914},{"id":"4294","nombre":"ARTAZAGANE (FARMAZIA) (4294)","lat":43.3324919207964,"lon":-2.98937243376218},{"id":"42","nombre":"ONDIZ (42)","lat":43.3274630268936,"lon":-2.99123715946542},{"id":"43","nombre":"ELEXALDE (SAKONETA) (43)","lat":43.3258238985439,"lon":-2.98798132831635},{"id":"4128","nombre":"LUIS BILBAO LIBANO (4128)","lat":43.3228153383536,"lon":-2.98603854051125},{"id":"27","nombre":"OTSOBARRENA (METRO LEIOA) (27)","lat":43.3189709184944,"lon":-2.99151512498667},{"id":"28","nombre":"LANGILERÍA (TXOPOETA/LA CHOPERA) (28)","lat":43.3195932351657,"lon":-2.99465472084149},{"id":"29","nombre":"LAMIAKO (METRO) (29)","lat":43.3216816098081,"lon":-3.00087565829693},{"id":"30","nombre":"AMAIA 29 (ANBULATORIOA) (30)","lat":43.3238342985934,"lon":-3.00841870344087},{"id":"31","nombre":"SANTA ANA (31)","lat":43.3220153015372,"lon":-3.00934344849401},{"id":"32","nombre":"EDUARDO COSTE (32)","lat":43.3209336833705,"lon":-3.01121075532},{"id":"1","nombre":"BIZKAIA ZUBIA/PUENTE BIZKAIA (1)","lat":43.3239867296496,"lon":-3.01547359044326}]},"A2162":{"0":[{"id":"33","nombre":"AVDA. DEL ANGEL 34 (LA VENTA) (33)","lat":43.3614410834101,"lon":-3.01597219008689},{"id":"34","nombre":"MAIDAGAN (PARKEA) (34)","lat":43.359905408814,"lon":-3.01099579082861},{"id":"35","nombre":"BIDEZABAL (VENANCIOS) (35)","lat":43.3579974927742,"lon":-3.00939746612316},{"id":"4155","nombre":"ALGORTAKO ETORBIDEA 59 (4155)","lat":43.3512709220425,"lon":-3.0114449830828},{"id":"36","nombre":"ALGORTAKO ETORB. 47 (KASINOA) (36)","lat":43.3481914475091,"lon":-3.01064239668292},{"id":"37","nombre":"ALGORTAKO ETORB. 31 (SAN IGNACIO) (37)","lat":43.3437433878772,"lon":-3.00842096052179},{"id":"38","nombre":"ALGORTAKO ETORB. 17 (TXOMINTXU) (38)","lat":43.3415822150818,"lon":-3.00945699023027},{"id":"39","nombre":"ALGORTAKO ETORB. 13 (REGOYOS) (39)","lat":43.3388268768747,"lon":-3.00876583159644},{"id":"40","nombre":"LA AVANZADA 28 (ANTIGUO GOLF) (40)","lat":43.3337936040308,"lon":-3.0037076078361},{"id":"41","nombre":"ARTATZA (SUHILTZAILEAK/BOMBEROS) (41)","lat":43.3299935936651,"lon":-2.99650379675314},{"id":"42","nombre":"ONDIZ (42)","lat":43.3274630268936,"lon":-2.99123715946542},{"id":"43","nombre":"ELEXALDE (SAKONETA) (43)","lat":43.3258238985439,"lon":-2.98798132831635},{"id":"12","nombre":"ELEXALDE (AUZO ETXEA/CENTRO CÍVICO) (12)","lat":43.3257696561667,"lon":-2.98684648376494},{"id":"16","nombre":"SARRIENA (IRLANDESAS) (16)","lat":43.3336570997499,"lon":-2.98265054113283},{"id":"17","nombre":"J.M. BARANDIARAN (INSTITUTUA) (17)","lat":43.3338259370983,"lon":-2.97448982879328},{"id":"3364","nombre":"EHU IKASGELATEGIAK/AULARIOS (3364)","lat":43.3306545215359,"lon":-2.9652343322973}],"1":[{"id":"3364","nombre":"EHU IKASGELATEGIAK/AULARIOS (3364)","lat":43.3306545215359,"lon":-2.9652343322973},{"id":"22","nombre":"J.M. BARANDIARAN (INSTITUTUA) (22)","lat":43.3338624900959,"lon":-2.97406484931442},{"id":"23","nombre":"SARRIENA (IRLANDESAS) (23)","lat":43.3337831804183,"lon":-2.98276152621791},{"id":"24","nombre":"ELEXALDE  (UDALETXEA/AYUNTAMIENTO) (24)","lat":43.3268412076545,"lon":-2.98690792385324},{"id":"13","nombre":"ONDIZ (13)","lat":43.3278682202758,"lon":-2.99107675314668},{"id":"56","nombre":"LA AVANZADA 11 (ANTIGUO GOLF) (56)","lat":43.3344238970429,"lon":-3.00444767044962},{"id":"57","nombre":"ALGORTAKO ETORB. 12 (REGOYOS) (57)","lat":43.3392374961076,"lon":-3.00861414841791},{"id":"58","nombre":"ALGORTAKO ETORB. 16 (TXOMINTXU) (58)","lat":43.3420189427889,"lon":-3.00937193043043},{"id":"59","nombre":"ALGORTAKO ETORB. 32 (SAN IGNACIO) (59)","lat":43.3435228009365,"lon":-3.00808164504428},{"id":"60","nombre":"ALGORTAKO ETORB. 74 (KASINOA) (60)","lat":43.3480564020971,"lon":-3.01039560200693},{"id":"61","nombre":"TELLETXE 2 (GELTOKIA/ESTACIÓN) (61)","lat":43.3503787484379,"lon":-3.00952572695496},{"id":"62","nombre":"TELLETXE 40 (62)","lat":43.3557461380648,"lon":-3.0118035639445},{"id":"63","nombre":"AV. DEL ANGEL 18 (63)","lat":43.3586091301499,"lon":-3.01619370310791},{"id":"33","nombre":"AVDA. DEL ANGEL 34 (LA VENTA) (33)","lat":43.3614410834101,"lon":-3.01597219008689}]},"A2312":{"0":[{"id":"4121","nombre":"ZABALBURU (JUAN DE GARAY) (4121)","lat":43.2567486983503,"lon":-2.9338246629385},{"id":"3832","nombre":"JUAN DE GARAY (TORRE URIZAR) (3832)","lat":43.2512653980098,"lon":-2.93479160481771},{"id":"3762","nombre":"EHU LABOA PLAZA (3762)","lat":43.3303845276464,"lon":-2.96787972192554}],"1":[{"id":"3762","nombre":"EHU LABOA PLAZA (3762)","lat":43.3303845276464,"lon":-2.96787972192554},{"id":"3685","nombre":"JUAN DE GARAY (TORRE URIZAR) (3685)","lat":43.2526338425921,"lon":-2.93432201246981},{"id":"3686","nombre":"ZABALBURU (JUAN DE GARAY) (3686)","lat":43.256334132292,"lon":-2.93322143094079}]},"A2314":{"0":[{"id":"3558","nombre":"ABANDO (GELTOKIA/ESTACIÓN) (3558)","lat":43.2601943654008,"lon":-2.92876940459035},{"id":"127","nombre":"SAN JOSÉ PLAZA (ELCANO 5) (127)","lat":43.2639983899594,"lon":-2.93560331451549},{"id":"129","nombre":"SAN PEDRO PLAZA (129)","lat":43.2719904972641,"lon":-2.94513290408517},{"id":"130","nombre":"BIDARTE (LEHENDAKARI AGUIRRE 42) (130)","lat":43.2721731694202,"lon":-2.95080265046693},{"id":"4104","nombre":"SARRIKOKO BIRIBILGUNEA/ROTONDA DE SARRIKO (4104)","lat":43.2734082295801,"lon":-2.95559856343995},{"id":"131","nombre":"SARRIKO (LEHENDAKARI AGUIRRE 88) (131)","lat":43.2748231103656,"lon":-2.95866614808138},{"id":"132","nombre":"SAN IGNACIO (LEHENDAKARI AGUIRRE 140) (132)","lat":43.2768682129197,"lon":-2.96009005307663},{"id":"133","nombre":"SAN IGNACIO (LEHENDAKARI AGUIRRE 154) (133)","lat":43.2788946489983,"lon":-2.96122246583724},{"id":"134","nombre":"PLAZA LEVANTE (LEHENDAKARI AGUIRRE 172) (134)","lat":43.2817676629494,"lon":-2.96282291069897},{"id":"137","nombre":"LUTXANA (RIBERA DE ELORRIETA) (137)","lat":43.2884324402027,"lon":-2.96915910808027},{"id":"138","nombre":"LUTXANA (138)","lat":43.2907381033155,"lon":-2.9709823333541},{"id":"139","nombre":"IBAÑEZ BETOLATZA (139)","lat":43.2954385325249,"lon":-2.96864543877823},{"id":"140","nombre":"PLAIABARRI (140)","lat":43.2965995889204,"lon":-2.96673385647266},{"id":"141","nombre":"SARATSETA (141)","lat":43.2989758583683,"lon":-2.96389697726139},{"id":"145","nombre":"ERANDIONDO (145)","lat":43.3031598811266,"lon":-2.95507880678108},{"id":"146","nombre":"ASUA (LA AVANZADA 12) (146)","lat":43.3039132358219,"lon":-2.94812434490884},{"id":"147","nombre":"ERANDIOGOIKOA (147)","lat":43.3081076682253,"lon":-2.95445974958245},{"id":"3552","nombre":"LA AVANZADA (ERTZAINTZA) (3552)","lat":43.3102848983743,"lon":-2.96159648822203},{"id":"3762","nombre":"EHU LABOA PLAZA (3762)","lat":43.3303845276464,"lon":-2.96787972192554}],"1":[{"id":"3762","nombre":"EHU LABOA PLAZA (3762)","lat":43.3303845276464,"lon":-2.96787972192554},{"id":"3553","nombre":"LA AVANZADA (ERTZAINTZA) (3553)","lat":43.3091628326488,"lon":-2.95874510750042},{"id":"150","nombre":"ERANDIOGOIKOA (150)","lat":43.3072472054774,"lon":-2.95316447778739},{"id":"151","nombre":"ASUA (MAKRO) (151)","lat":43.3037515811648,"lon":-2.94907755966533},{"id":"153","nombre":"ERANDIONDO (153)","lat":43.3021522883163,"lon":-2.95749608493484},{"id":"154","nombre":"SAKONI (154)","lat":43.300315767709,"lon":-2.95864395156481},{"id":"156","nombre":"SARATSETA (156)","lat":43.2988229075717,"lon":-2.96430391136414},{"id":"157","nombre":"PLAIABARRI (157)","lat":43.2966626499039,"lon":-2.96683244735891},{"id":"158","nombre":"IBAÑEZ BETOLATZA (158)","lat":43.2954836128923,"lon":-2.96885499025043},{"id":"159","nombre":"LUTXANA (159)","lat":43.2905309968176,"lon":-2.97098243181323},{"id":"160","nombre":"LUTXANA (RIBERA DE ELORRIETA) (160)","lat":43.2866941372875,"lon":-2.96768084895481},{"id":"161","nombre":"RIBERA DE ELORRIETA (161)","lat":43.284190714561,"lon":-2.96721379994837},{"id":"241","nombre":"SAN IGNACIO (LEHENDAKARI AGUIRRE 161) (241)","lat":43.2793720819883,"lon":-2.96177677262655},{"id":"163","nombre":"SAN IGNACIO (LEHENDAKARI AGUIRRE 147) (163)","lat":43.2776698781928,"lon":-2.960816664186},{"id":"164","nombre":"SAN IGNACIO (LEHENDAKARI AGUIRRE 131) (164)","lat":43.2757695288092,"lon":-2.95975802473157},{"id":"165","nombre":"SARRIKO (LEHENDAKARI AGUIRRE  83) (165)","lat":43.2737607073333,"lon":-2.95759040642544},{"id":"244","nombre":"BIDARTE (LEHENDAKARI AGUIRRE 33) (244)","lat":43.2719562198273,"lon":-2.9501158085093},{"id":"167","nombre":"SAN PEDRO PLAZA (167)","lat":43.2715752256153,"lon":-2.94406548114299},{"id":"168","nombre":"MUSEO PLAZA (168)","lat":43.2660614706448,"lon":-2.93742479290985},{"id":"169","nombre":"GRAN VÍA 45 (SOTA) (169)","lat":43.2632696987902,"lon":-2.93683622429692},{"id":"248","nombre":"ELCANO 16 (248)","lat":43.261106954596,"lon":-2.9339640984177},{"id":"3558","nombre":"ABANDO (GELTOKIA/ESTACIÓN) (3558)","lat":43.2601943654008,"lon":-2.92876940459035}]},"A2315":{"0":[{"id":"443","nombre":"CABIECES (443)","lat":43.3217756908554,"lon":-3.03748797603254},{"id":"528","nombre":"ANBULATORIOA (528)","lat":43.3253965961741,"lon":-3.03408590435561},{"id":"1321","nombre":"PARKEA / PARQUE (ARKUPEAK/SOPORTALES) (1321)","lat":43.3283236464893,"lon":-3.03213868071393},{"id":"333","nombre":"SAN JUAN DE DIOS (OSPITALEA/HOSPITAL) (333)","lat":43.3252818931702,"lon":-3.02453936781537},{"id":"334","nombre":"ABARO 11 (334)","lat":43.3220319675043,"lon":-3.020875073732},{"id":"449","nombre":"CARLOS VII 4 (449)","lat":43.3200869865846,"lon":-3.02082519960253},{"id":"450","nombre":"CARLOS VII 18 (450)","lat":43.3180685746664,"lon":-3.02243278959486},{"id":"451","nombre":"MIGUEL DE UNAMUNO ( BEILATOKIA / TANATORIO) (451)","lat":43.3145837667038,"lon":-3.02259182087049},{"id":"452","nombre":"ERREPELEGA / REPELEGA (452)","lat":43.3139014444472,"lon":-3.01653179925692},{"id":"382","nombre":"HILERRIA/CEMENTERIO (382)","lat":43.312236050989,"lon":-3.01299226323641},{"id":"1146","nombre":"LAS LLANAS (1146)","lat":43.310020230892,"lon":-3.0099879944186},{"id":"801","nombre":"VÍA GALINDO 14 (801)","lat":43.3069236742253,"lon":-3.00841673923329},{"id":"649","nombre":"LANDETA (GOIKOA) (649)","lat":43.2932903930767,"lon":-2.98918424176285},{"id":"4131","nombre":"EHU OTEIZA PLAZA (4131)","lat":43.3309530590893,"lon":-2.97014352831298}],"1":[{"id":"4131","nombre":"EHU OTEIZA PLAZA (4131)","lat":43.3309530590893,"lon":-2.97014352831298},{"id":"3954","nombre":"LANDETA (BEKOA) (3954)","lat":43.2931012877117,"lon":-2.98909798320529},{"id":"459","nombre":"ANDRES JAUREGIBEITIA (459)","lat":43.3062383423951,"lon":-3.00945718121278},{"id":"378","nombre":"MARIANA PINEDA (378)","lat":43.3091556126963,"lon":-3.01183745521968},{"id":"379","nombre":"HILERRIA/CEMENTERIO (379)","lat":43.312136030222,"lon":-3.01281220516877},{"id":"433","nombre":"ERREPELEGA / REPELEGA (433)","lat":43.3146036578093,"lon":-3.01750620053938},{"id":"434","nombre":"RAMÓN Y CAJAL (GASOLINDEGIA/GASOLINERA) (434)","lat":43.3156375247582,"lon":-3.0214453358855},{"id":"435","nombre":"CARLOS VII (LOS ANGELES KAFETEGIA) (435)","lat":43.3170790906354,"lon":-3.02273567647254},{"id":"436","nombre":"CARLOS VII 3 (436)","lat":43.3200149856659,"lon":-3.02062784895887},{"id":"326","nombre":"ABARO 10 (326)","lat":43.3219508787531,"lon":-3.02064071384148},{"id":"327","nombre":"SAN JUAN DE DIOS (OSPITALEA/HOSPITAL) (327)","lat":43.3248037815218,"lon":-3.02353298012941},{"id":"1086","nombre":"PARKEA/PARQUE (SIGLO XVIII) (1086)","lat":43.3283498381318,"lon":-3.03087341490601},{"id":"331","nombre":"GERNIKA PARKEA (331)","lat":43.3289339828726,"lon":-3.03488248261171},{"id":"442","nombre":"ANBULATORIOA (442)","lat":43.3248098886388,"lon":-3.03488012281846},{"id":"443","nombre":"CABIECES (443)","lat":43.3217756908554,"lon":-3.03748797603254}]},"A2318":{"0":[{"id":"3948","nombre":"TERMIBUS (ZUNZUNEGI) (3948)","lat":43.2626996221574,"lon":-2.95057925504805},{"id":"3762","nombre":"EHU LABOA PLAZA (3762)","lat":43.3303845276464,"lon":-2.96787972192554}],"1":[{"id":"3762","nombre":"EHU LABOA PLAZA (3762)","lat":43.3303845276464,"lon":-2.96787972192554},{"id":"3948","nombre":"TERMIBUS (ZUNZUNEGI) (3948)","lat":43.2626996221574,"lon":-2.95057925504805}]},"A2321":{"0":[{"id":"172","nombre":"ENRIQUE IBARRETA (SANTUTXU) (172)","lat":43.254688388556,"lon":-2.91013613622519},{"id":"173","nombre":"JESUS GALINDEZ (ADORATRICES) (173)","lat":43.260478558036,"lon":-2.90476669431675},{"id":"174","nombre":"JESUS GALINDEZ (COLEGIO ALEMÁN) (174)","lat":43.2592078346912,"lon":-2.9089910667923},{"id":"1799","nombre":"ZUMALAKARREGI (MAKUA PLAZA) (1799)","lat":43.2571120356568,"lon":-2.91191899764837},{"id":"941","nombre":"ZUMALAKARREGI 121 (BEGOÑA) (941)","lat":43.2603553665131,"lon":-2.9140827883811},{"id":"177","nombre":"MAURICE RAVEL (PANERA) (177)","lat":43.2654898588482,"lon":-2.91667535798348},{"id":"178","nombre":"MAURICE RAVEL (TELÉFONICA) (178)","lat":43.26790443915,"lon":-2.9185204172273},{"id":"944","nombre":"MAURICE RAVEL (BEGIRATOKIA/MIRADOR) (944)","lat":43.2699244480716,"lon":-2.92279359696577},{"id":"3515","nombre":"EHU BIBLIOTEKA (3515)","lat":43.3306555964989,"lon":-2.96897184607472}],"1":[{"id":"3515","nombre":"EHU BIBLIOTEKA (3515)","lat":43.3306555964989,"lon":-2.96897184607472},{"id":"181","nombre":"MAURICE RAVEL (BEGIRATOKIA/MIRADOR) (181)","lat":43.2695820126709,"lon":-2.92241202639439},{"id":"182","nombre":"MAURICE RAVEL (TELEFÓNICA) (182)","lat":43.2676252947359,"lon":-2.91852078955815},{"id":"183","nombre":"ZUMALAKARREGI (ETXEBARRIA PARKEA) (183)","lat":43.2607161336273,"lon":-2.91485849791825},{"id":"191","nombre":"ZUMALAKARREGI (MAKUA) (191)","lat":43.2568234531992,"lon":-2.91205900052188},{"id":"172","nombre":"ENRIQUE IBARRETA (SANTUTXU) (172)","lat":43.254688388556,"lon":-2.91013613622519}]},"A2322":{"0":[{"id":"4256","nombre":"MOYUA PLAZA (DEUTSCHE BANK) (4256)","lat":43.2633134196392,"lon":-2.93451975099933},{"id":"949","nombre":"MUSEO PLAZA (949)","lat":43.2658991635199,"lon":-2.93701833489073},{"id":"129","nombre":"SAN PEDRO PLAZA (129)","lat":43.2719904972641,"lon":-2.94513290408517},{"id":"808","nombre":"IBARREKOLANDA (808)","lat":43.2732545943036,"lon":-2.95285856010342},{"id":"809","nombre":"ENEKURI (GASOLINDEGIA/GASOLINERA) (809)","lat":43.2860253293994,"lon":-2.95838283131432},{"id":"810","nombre":"ENEKURI (810)","lat":43.2895019164676,"lon":-2.96063612597737},{"id":"837","nombre":"FAOETA (837)","lat":43.294757285412,"lon":-2.95321610175083},{"id":"146","nombre":"ASUA (LA AVANZADA 12) (146)","lat":43.3039132358219,"lon":-2.94812434490884},{"id":"147","nombre":"ERANDIOGOIKOA (147)","lat":43.3081076682253,"lon":-2.95445974958245},{"id":"227","nombre":"ALTZAGA-ERANDIOGOIKOA (ELEXALDE) (227)","lat":43.3077082673075,"lon":-2.95786200228327},{"id":"228","nombre":"ALTZAGA-ERANDIOGOIKOA (URIBARRI) (228)","lat":43.303791960782,"lon":-2.95980057750264},{"id":"229","nombre":"ALTZAGA-ERANDIOGOIKOA (BEITIBEKOA) (229)","lat":43.3015675729229,"lon":-2.9590992815949},{"id":"230","nombre":"ALTZAGA-ERANDIOGOIKOA  (ARTETXE) (230)","lat":43.3043507175298,"lon":-2.96278893131983},{"id":"231","nombre":"ALTZAGA-ERANDIOGOIKOA (ARRIAGA) (231)","lat":43.3034656515738,"lon":-2.96688040996734},{"id":"232","nombre":"ALTZAGA-ERANDIOGOIKOA  (BASABE) (232)","lat":43.3014582804973,"lon":-2.96923512990526},{"id":"234","nombre":"OBIETA 33 (234)","lat":43.304137711964,"lon":-2.97139023775526},{"id":"237","nombre":"LEGAZPI (237)","lat":43.3032102987076,"lon":-2.97430536190823},{"id":"964","nombre":"JOSE LUIS GOIOAGA (AXPEKO DARTSENA) (964)","lat":43.3093250819921,"lon":-2.97741012688753},{"id":"965","nombre":"AXPE ERRIBERA (965)","lat":43.313324246639,"lon":-2.98408000085277},{"id":"66","nombre":"MADARIPEBIDEA (METRO) (66)","lat":43.3142877908235,"lon":-2.98446203265622},{"id":"68","nombre":"MEZO 32 (JUANENA) (68)","lat":43.316637461962,"lon":-2.9809714227362},{"id":"968","nombre":"MEZO 36 (ELEXAZPI) (968)","lat":43.3157012110173,"lon":-2.978204166112},{"id":"69","nombre":"MEZO 48 (SALITURRI) (69)","lat":43.3150967554839,"lon":-2.97322230115393},{"id":"70","nombre":"MEZO 68-70 (BISTALAI) (70)","lat":43.3146457011825,"lon":-2.96990524704578},{"id":"3365","nombre":"MAGDALENABIDEA (ZUBIETAKOERROTA) (3365)","lat":43.3177428435664,"lon":-2.96828804841665},{"id":"211","nombre":"MAGDALENABIDEA (ZABALBIDEA) (211)","lat":43.3177331064252,"lon":-2.9657475756382},{"id":"212","nombre":"MAGDALENABIDEA (IBARRA) (212)","lat":43.3215048466867,"lon":-2.96227971005979},{"id":"213","nombre":"MAGDALENABIDEA (IKATZA) (213)","lat":43.3243668789,"lon":-2.95818313151394},{"id":"214","nombre":"MAGDALENABIDEA (MAGDALENA) (214)","lat":43.3258159240445,"lon":-2.95633202982257},{"id":"215","nombre":"MAGDALENABIDEA (ERREKURTZE) (215)","lat":43.3292108948479,"lon":-2.9569832155618},{"id":"216","nombre":"QUIRON OSPITALEA (216)","lat":43.3291282727771,"lon":-2.95429985513776},{"id":"18","nombre":"LIBAO (AROSTEGI) (18)","lat":43.3306436706505,"lon":-2.96144070045618},{"id":"3364","nombre":"EHU IKASGELATEGIAK/AULARIOS (3364)","lat":43.3306545215359,"lon":-2.9652343322973}],"1":[{"id":"3364","nombre":"EHU IKASGELATEGIAK/AULARIOS (3364)","lat":43.3306545215359,"lon":-2.9652343322973},{"id":"21","nombre":"LIBAO (AROSTEGI) (21)","lat":43.3302297484126,"lon":-2.96230440844068},{"id":"216","nombre":"QUIRON OSPITALEA (216)","lat":43.3291282727771,"lon":-2.95429985513776},{"id":"220","nombre":"MAGDALENABIDEA (ERREKURTZE) (220)","lat":43.3291389466651,"lon":-2.95721885956449},{"id":"221","nombre":"MAGDALENABIDEA (MAGDALENA) (221)","lat":43.3258429847869,"lon":-2.95645535100955},{"id":"222","nombre":"MAGDALENABIDEA (IKATZA) (222)","lat":43.3243849420659,"lon":-2.95833112426965},{"id":"223","nombre":"MAGDALENABIDEA (IBARRA) (223)","lat":43.3215679193575,"lon":-2.96240300296266},{"id":"224","nombre":"MAGDALENABIDEA (ZABALBIDEA) (224)","lat":43.3176071209312,"lon":-2.96601155957622},{"id":"3366","nombre":"MAGDALENABIDEA (ZUBIETAKOERROTA) (3366)","lat":43.3180581901557,"lon":-2.96896617095819},{"id":"86","nombre":"MEZO 77-79 (BISTALAI) (86)","lat":43.3150058913503,"lon":-2.96992973303301},{"id":"87","nombre":"MEZO 63 (SALITURRI) (87)","lat":43.3154030146701,"lon":-2.97366611671949},{"id":"992","nombre":"MEZO 41 (ELEXAZPI) (992)","lat":43.3157822264084,"lon":-2.97806848491211},{"id":"88","nombre":"MEZO 35 (JUANENA) (88)","lat":43.3163851972779,"lon":-2.98016991207791},{"id":"4127","nombre":"ITURRIBENGOA (4127)","lat":43.3170705402018,"lon":-2.98181703555367},{"id":"90","nombre":"ETXEGORRI (METRO) (90)","lat":43.3150180981473,"lon":-2.98613380122176},{"id":"91","nombre":"JOSE LUIS GOIOAGA (AXPEKO DARTSENA) (91)","lat":43.3090279471565,"lon":-2.97749655152383},{"id":"64","nombre":"LEGAZPI (64)","lat":43.3030752791828,"lon":-2.97452734893449},{"id":"201","nombre":"GERNIKA ETORBIDEA (TELEFÓNICA) (201)","lat":43.3029492014469,"lon":-2.97178533677909},{"id":"203","nombre":"ALTZAGA-ERANDIOGOIKOA (BASABE) (203)","lat":43.3014131888396,"lon":-2.96898117281858},{"id":"204","nombre":"ALTZAGA-ERANDIOGOIKOA (ARRIAGA) (204)","lat":43.3032448468299,"lon":-2.96622460108366},{"id":"205","nombre":"ALTZAGA-ERANDIGOIKOA (ARTETXE) (205)","lat":43.3042206793523,"lon":-2.96275325454782},{"id":"206","nombre":"ALTZAGA-ERANDIOGOIKOA (BEITITBEKOA) (206)","lat":43.3020001513171,"lon":-2.96010998897871},{"id":"207","nombre":"ALTZAGA-ERANDIOGOIKOA (URIBARRI) (207)","lat":43.303836931731,"lon":-2.95965259258325},{"id":"208","nombre":"ALTZAGA-ERANDIOGOIKOA (ELEXALDE) (208)","lat":43.3074831794813,"lon":-2.95793613983225},{"id":"150","nombre":"ERANDIOGOIKOA (150)","lat":43.3072472054774,"lon":-2.95316447778739},{"id":"887","nombre":"ASUA (INBISA) (887)","lat":43.3024542250643,"lon":-2.94754610703756},{"id":"888","nombre":"FAOETA (888)","lat":43.2950911604092,"lon":-2.95361785667435},{"id":"889","nombre":"ENEKURI (889)","lat":43.289196019445,"lon":-2.96140057552057},{"id":"890","nombre":"IBARREKOLANDA (890)","lat":43.2732998999016,"lon":-2.95354863781794},{"id":"167","nombre":"SAN PEDRO PLAZA (167)","lat":43.2715752256153,"lon":-2.94406548114299},{"id":"168","nombre":"MUSEO PLAZA (168)","lat":43.2660614706448,"lon":-2.93742479290985},{"id":"169","nombre":"GRAN VÍA 45 (SOTA) (169)","lat":43.2632696987902,"lon":-2.93683622429692},{"id":"4256","nombre":"MOYUA PLAZA (DEUTSCHE BANK) (4256)","lat":43.2633134196392,"lon":-2.93451975099933}]},"A2326":{"0":[{"id":"311","nombre":"ZORROTZA (FRAY JUAN 8) (311)","lat":43.2766730082295,"lon":-2.97160522364472},{"id":"574","nombre":"BURTZEÑA (GASOLINDEGIA/GASOLINERA) (574)","lat":43.2796731306881,"lon":-2.97887541758114},{"id":"4172","nombre":"BALEJO (4172)","lat":43.2835465848432,"lon":-2.98333147450314},{"id":"399","nombre":"ARGENTA (399)","lat":43.2861754107115,"lon":-2.98002737806666},{"id":"405","nombre":"LUTXANA (ELIZA/IGLESIA) (405)","lat":43.2906145728716,"lon":-2.97933549386142},{"id":"649","nombre":"LANDETA (GOIKOA) (649)","lat":43.2932903930767,"lon":-2.98918424176285},{"id":"4131","nombre":"EHU OTEIZA PLAZA (4131)","lat":43.3309530590893,"lon":-2.97014352831298}],"1":[{"id":"4131","nombre":"EHU OTEIZA PLAZA (4131)","lat":43.3309530590893,"lon":-2.97014352831298},{"id":"3954","nombre":"LANDETA (BEKOA) (3954)","lat":43.2931012877117,"lon":-2.98909798320529},{"id":"393","nombre":"LUTXANA (ELIZA/IGLESIA) (393)","lat":43.2906956522151,"lon":-2.97954502460604},{"id":"394","nombre":"ANDIKOLLANO (ANBULATORIOA) (394)","lat":43.2882549320563,"lon":-2.98102957844521},{"id":"4172","nombre":"BALEJO (4172)","lat":43.2835465848432,"lon":-2.98333147450314},{"id":"350","nombre":"BURTZEÑA (BATZOKIA) (350)","lat":43.2793399859109,"lon":-2.97902342875286},{"id":"363","nombre":"ZORROTZA (FRAY JUAN 35) (363)","lat":43.2774932468268,"lon":-2.97510493980456}]},"A2336":{"0":[{"id":"1065","nombre":"SAN JUAN (1065)","lat":43.3229147603996,"lon":-3.12879836737415},{"id":"1067","nombre":"LAS ACACIAS (1067)","lat":43.3195916047301,"lon":-3.12921066258771},{"id":"1068","nombre":"AUTONOMÍA (1068)","lat":43.3187803961645,"lon":-3.12340804595371},{"id":"1365","nombre":"EL CRUCERO (1365)","lat":43.3221292340508,"lon":-3.11562005231091},{"id":"1111","nombre":"LAS CARRERAS (AMBROSIO DE LOS HEROS 39) (1111)","lat":43.3189939960746,"lon":-3.09789205977334},{"id":"1180","nombre":"GALLARTA (1180)","lat":43.3174340638102,"lon":-3.07470941352309},{"id":"1194","nombre":"UDALETXEA/AYUNTAMIENTO (1194)","lat":43.3207143048605,"lon":-3.07295733400509},{"id":"1116","nombre":"NOCEDAL (1116)","lat":43.3190456498818,"lon":-3.06232456579216},{"id":"1117","nombre":"CATALINA GIBAJA 23 (1117)","lat":43.310575337052,"lon":-3.05653280897326},{"id":"1118","nombre":"EL MINERO (ANBULATORIOA) (1118)","lat":43.3087764297303,"lon":-3.05230174405114},{"id":"1119","nombre":"ETXABA (1119)","lat":43.3075181836412,"lon":-3.04654239120486},{"id":"1120","nombre":"URIOSTE (1120)","lat":43.3095059683978,"lon":-3.04032797524435},{"id":"679","nombre":"PRIMERO DE MAYO (UDALETXEA/AYUNTAMIENTO) (679)","lat":43.3045590954805,"lon":-3.03689826663854},{"id":"680","nombre":"PRIMERO DE MAYO 32 (680)","lat":43.3014399933009,"lon":-3.03366997213069},{"id":"1383","nombre":"UGARTE (1383)","lat":43.2917546400217,"lon":-3.01625756028783},{"id":"3515","nombre":"EHU BIBLIOTEKA (3515)","lat":43.3306555964989,"lon":-2.96897184607472}],"1":[{"id":"3515","nombre":"EHU BIBLIOTEKA (3515)","lat":43.3306555964989,"lon":-2.96897184607472},{"id":"600","nombre":"LA FLORIDA 7 (600)","lat":43.2927947859614,"lon":-2.98669419951901},{"id":"786","nombre":"LA LIBERTAD (LOS HERMANOS PARKEA) (786)","lat":43.2972795975379,"lon":-2.99098334071463},{"id":"459","nombre":"ANDRES JAUREGIBEITIA (459)","lat":43.3062383423951,"lon":-3.00945718121278},{"id":"378","nombre":"MARIANA PINEDA (378)","lat":43.3091556126963,"lon":-3.01183745521968},{"id":"379","nombre":"HILERRIA/CEMENTERIO (379)","lat":43.312136030222,"lon":-3.01281220516877},{"id":"433","nombre":"ERREPELEGA / REPELEGA (433)","lat":43.3146036578093,"lon":-3.01750620053938},{"id":"434","nombre":"RAMÓN Y CAJAL (GASOLINDEGIA/GASOLINERA) (434)","lat":43.3156375247582,"lon":-3.0214453358855},{"id":"435","nombre":"CARLOS VII (LOS ANGELES KAFETEGIA) (435)","lat":43.3170790906354,"lon":-3.02273567647254},{"id":"436","nombre":"CARLOS VII 3 (436)","lat":43.3200149856659,"lon":-3.02062784895887},{"id":"326","nombre":"ABARO 10 (326)","lat":43.3219508787531,"lon":-3.02064071384148},{"id":"327","nombre":"SAN JUAN DE DIOS (OSPITALEA/HOSPITAL) (327)","lat":43.3248037815218,"lon":-3.02353298012941},{"id":"1086","nombre":"PARKEA/PARQUE (SIGLO XVIII) (1086)","lat":43.3283498381318,"lon":-3.03087341490601},{"id":"331","nombre":"GERNIKA PARKEA (331)","lat":43.3289339828726,"lon":-3.03488248261171},{"id":"442","nombre":"ANBULATORIOA (442)","lat":43.3248098886388,"lon":-3.03488012281846},{"id":"765","nombre":"CABIECES (765)","lat":43.322099623171,"lon":-3.03819117329407},{"id":"1140","nombre":"EL CASAL (1140)","lat":43.3221103854703,"lon":-3.07237440603933},{"id":"1143","nombre":"LAS CARRERAS (AMBROSIO DE LOS HEROS 42) (1143)","lat":43.3191201550423,"lon":-3.0977812680419},{"id":"1298","nombre":"EL CRUCERO (1298)","lat":43.3221447999564,"lon":-3.11625376717447},{"id":"1063","nombre":"AUTONOMÍA (1063)","lat":43.3193391441363,"lon":-3.12297753088218},{"id":"1064","nombre":"LAS ACACIAS (1064)","lat":43.320473269529,"lon":-3.12990317719136},{"id":"1066","nombre":"SAN JUAN (Muskiz) (1066)","lat":43.3228064694165,"lon":-3.12900780710536}]},"A2610":{"0":[{"id":"251","nombre":"ZABALGANE (251)","lat":43.2302341722653,"lon":-2.83834069711299},{"id":"252","nombre":"UDALETXEA/AYUNTAMIENTO (252)","lat":43.2306981761316,"lon":-2.84181225888077},{"id":"253","nombre":"JUAN BAUTISTA URIARTE 27 (253)","lat":43.2302513113924,"lon":-2.84493249735931},{"id":"255","nombre":"IBAIZABAL (255)","lat":43.231745680851,"lon":-2.85071321683795},{"id":"256","nombre":"BENGOETXE (256)","lat":43.232459033041,"lon":-2.8594552723034},{"id":"257","nombre":"OLABARRIETA (POBLADO FIRESTONE) (257)","lat":43.2373349206584,"lon":-2.87084873425248},{"id":"258","nombre":"APERRIBAI (258)","lat":43.2404538699003,"lon":-2.87382281635625},{"id":"2508","nombre":"URBI 47 (2508)","lat":43.2372431088343,"lon":-2.87742945806955},{"id":"279","nombre":"AGIRRE LEHENDAKARIA 73 (ARIZ DORRETXEA) (279)","lat":43.236135154107,"lon":-2.88134445527078},{"id":"280","nombre":"AGIRRE LEHENDAKARIA (SAN JOSÉ IKASTETXEA) (280)","lat":43.2372978476801,"lon":-2.88685984874654},{"id":"281","nombre":"KAREAGA GOIKOA 111 (UDALETXEA/AYUNTAMIENTO) (281)","lat":43.2356541928511,"lon":-2.8911980691472},{"id":"282","nombre":"KAREAGA GOIKOA 79 (BURRITOS) (282)","lat":43.2379085221478,"lon":-2.8945625676784},{"id":"283","nombre":"KAREAGA GOIKOA 11 (EL CALERO) (283)","lat":43.2388472939099,"lon":-2.89787162264113},{"id":"284","nombre":"ZUBIALDEA (EL BOQUETE) (284)","lat":43.2443906792495,"lon":-2.90421825027865},{"id":"285","nombre":"METRO BOLUETA (285)","lat":43.2471209655369,"lon":-2.90646819601949},{"id":"1798","nombre":"IBARSUSI (1798)","lat":43.2505305823356,"lon":-2.9019380194001},{"id":"1799","nombre":"ZUMALAKARREGI (MAKUA PLAZA) (1799)","lat":43.2571120356568,"lon":-2.91191899764837},{"id":"941","nombre":"ZUMALAKARREGI 121 (BEGOÑA) (941)","lat":43.2603553665131,"lon":-2.9140827883811},{"id":"177","nombre":"MAURICE RAVEL (PANERA) (177)","lat":43.2654898588482,"lon":-2.91667535798348},{"id":"178","nombre":"MAURICE RAVEL (TELÉFONICA) (178)","lat":43.26790443915,"lon":-2.9185204172273},{"id":"944","nombre":"MAURICE RAVEL (BEGIRATOKIA/MIRADOR) (944)","lat":43.2699244480716,"lon":-2.92279359696577}],"1":[{"id":"181","nombre":"MAURICE RAVEL (BEGIRATOKIA/MIRADOR) (181)","lat":43.2695820126709,"lon":-2.92241202639439},{"id":"182","nombre":"MAURICE RAVEL (TELEFÓNICA) (182)","lat":43.2676252947359,"lon":-2.91852078955815},{"id":"183","nombre":"ZUMALAKARREGI (ETXEBARRIA PARKEA) (183)","lat":43.2607161336273,"lon":-2.91485849791825},{"id":"1759","nombre":"ZUMALAKARREGI 56 (SANTUTXU) (1759)","lat":43.2556975481798,"lon":-2.91094776504837},{"id":"1760","nombre":"IBARSUSI (1760)","lat":43.2493159577714,"lon":-2.90312255392265},{"id":"290","nombre":"METRO BOLUETA (290)","lat":43.2466345510418,"lon":-2.90627185122154},{"id":"291","nombre":"ZUBIALDEA (EL BOQUETE) (291)","lat":43.2439587193687,"lon":-2.90378399523639},{"id":"292","nombre":"KAREAGA GOIKOA 12 (EL CALERO) (292)","lat":43.2384961988095,"lon":-2.89716647795174},{"id":"293","nombre":"KAREAGA GOIKOA 26 (BURRITOS) (293)","lat":43.2376831944278,"lon":-2.89433510538551},{"id":"294","nombre":"KAREAGA GOIKOA 52 (UDALETXEA/AYUNTAMIENTO) (294)","lat":43.2353526956666,"lon":-2.89136733186299},{"id":"295","nombre":"NAGUSIA (BEGIRATOKIA/MIRADOR) (295)","lat":43.2354621725624,"lon":-2.88816872094307},{"id":"296","nombre":"AGIRRE LEHENDAKARIA 76 (ARIZ DORRETXEA) (296)","lat":43.2360453419416,"lon":-2.88157124263191},{"id":"2492","nombre":"URBI 2 (2492)","lat":43.2373950056067,"lon":-2.87699808657155},{"id":"4124","nombre":"URBI (4124)","lat":43.2393467135344,"lon":-2.87420691539685},{"id":"266","nombre":"OLABARRIETA (POBLADO FIRESTONE) (266)","lat":43.2372632719161,"lon":-2.87119373845806},{"id":"267","nombre":"BENGOETXE (267)","lat":43.232143292787,"lon":-2.85898802239733},{"id":"268","nombre":"IBAIZABAL (268)","lat":43.2309155157277,"lon":-2.85007843978062},{"id":"269","nombre":"JUAN BAUTISTA URIARTE 24 (269)","lat":43.2300454994638,"lon":-2.84522512428221},{"id":"270","nombre":"UDALETXEA/AYUNTAMIENTO (270)","lat":43.2307862257723,"lon":-2.84030961712574},{"id":"4087","nombre":"ZABALGANE (TELEFONICA) (4087)","lat":43.2301807523703,"lon":-2.83877185444833}]},"A3115":{"0":[{"id":"171","nombre":"ABANDO (GELTOKIA/ESTACIÓN) (171)","lat":43.2605451701038,"lon":-2.92816527312086},{"id":"305","nombre":"ZABALBURU (AUTONOMÍA 4) (305)","lat":43.2573977902076,"lon":-2.93514222498991},{"id":"306","nombre":"AUTONOMÍA 20 (306)","lat":43.2575253937742,"lon":-2.93791414782263},{"id":"307","nombre":"LA CASILLA (AUTONOMIA 50) (307)","lat":43.2577891164216,"lon":-2.9428789656898},{"id":"308","nombre":"AUTONOMÍA 78 (LANTIK) (308)","lat":43.2580431192847,"lon":-2.94813126881199},{"id":"309","nombre":"BASURTO OSPITALEA/HOSPITAL BASURTO (309)","lat":43.2601703416076,"lon":-2.95303313849602},{"id":"361","nombre":"SANTIAGO - SANTA ANA (361)","lat":43.2629000943231,"lon":-2.9564070880931},{"id":"310","nombre":"OLABEAGA (AVDA. MONTEVIDEO) (310)","lat":43.264990904232,"lon":-2.96119876267004},{"id":"311","nombre":"ZORROTZA (FRAY JUAN 8) (311)","lat":43.2766730082295,"lon":-2.97160522364472},{"id":"312","nombre":"BURTZEÑA (PILOTALEKUA/FRONTÓN) (312)","lat":43.2803310552714,"lon":-2.97815603438521},{"id":"313","nombre":"ZUMALAKARREGI (KOTXETEGIA/COCHERAS) (313)","lat":43.2837338018665,"lon":-2.97669239082472},{"id":"314","nombre":"LUTXANA (GELTOKIA/ESTACIÓN) (314)","lat":43.288533661218,"lon":-2.97552730487965},{"id":"315","nombre":"OBISPO OLAETXEA (315)","lat":43.2903345160405,"lon":-2.97519375710934},{"id":"373","nombre":"AV ALTOS HORNOS (373)","lat":43.2963857309818,"lon":-2.97885730515783},{"id":"316","nombre":"ERREKETA (316)","lat":43.3018707908781,"lon":-2.98193289870009},{"id":"318","nombre":"URBINAGA (LA NAVAL) (318)","lat":43.3065181900118,"lon":-2.98934181885212},{"id":"374","nombre":"RIVAS (374)","lat":43.3079322261402,"lon":-2.9935215893319},{"id":"320","nombre":"LOS BAÑOS (320)","lat":43.3108490901795,"lon":-2.9999506759005},{"id":"321","nombre":"IBERIA (321)","lat":43.3111921025324,"lon":-3.00379304458193},{"id":"322","nombre":"CHAVARRI 34 (ARBOLEDA) (322)","lat":43.3124165380383,"lon":-3.00760350533479},{"id":"323","nombre":"CHAVARRI (GASOLINDEGIA/GASOLINERA) (323)","lat":43.3135959627318,"lon":-3.01090851587368},{"id":"3953","nombre":"AZETA (3953)","lat":43.3154507596512,"lon":-3.01237622699809},{"id":"324","nombre":"BEGIRATOKIA / MIRADOR (324)","lat":43.3181698233015,"lon":-3.01506526496157},{"id":"325","nombre":"GENERAL CASTAÑOS 2 (EL CRISTO) (325)","lat":43.3195562044937,"lon":-3.01735950559531},{"id":"326","nombre":"ABARO 10 (326)","lat":43.3219508787531,"lon":-3.02064071384148},{"id":"327","nombre":"SAN JUAN DE DIOS (OSPITALEA/HOSPITAL) (327)","lat":43.3248037815218,"lon":-3.02353298012941},{"id":"328","nombre":"MURRIETA 13 (BATZOKIA) (328)","lat":43.3271890121265,"lon":-3.02790025357276},{"id":"1086","nombre":"PARKEA/PARQUE (SIGLO XVIII) (1086)","lat":43.3283498381318,"lon":-3.03087341490601},{"id":"330","nombre":"LAS VIÑAS (330)","lat":43.3282331753099,"lon":-3.03361877790969}],"1":[{"id":"330","nombre":"LAS VIÑAS (330)","lat":43.3282331753099,"lon":-3.03361877790969},{"id":"332","nombre":"MURRIETA 42 (BATZOKIA) (332)","lat":43.3274228891726,"lon":-3.02887477638773},{"id":"333","nombre":"SAN JUAN DE DIOS (OSPITALEA/HOSPITAL) (333)","lat":43.3252818931702,"lon":-3.02453936781537},{"id":"334","nombre":"ABARO 11 (334)","lat":43.3220319675043,"lon":-3.020875073732},{"id":"335","nombre":"GENERAL CASTAÑOS 19 (335)","lat":43.3201672021412,"lon":-3.01937500022008},{"id":"336","nombre":"BEGIRATOKIA / MIRADOR (336)","lat":43.3181697302543,"lon":-3.01575588522469},{"id":"337","nombre":"AZETA (337)","lat":43.3147394153828,"lon":-3.01220343728082},{"id":"338","nombre":"CHAVARRI (GASOLINDEGIA/GASOLINERA) (338)","lat":43.3134328878653,"lon":-3.0109257508722},{"id":"339","nombre":"CHAVARRI 111 (ARBOLEDA) (339)","lat":43.3122904736789,"lon":-3.00760348961897},{"id":"340","nombre":"IBERIA (340)","lat":43.3113541311759,"lon":-3.00517414087931},{"id":"341","nombre":"LOS BAÑOS (341)","lat":43.3106059644655,"lon":-2.99940811316531},{"id":"342","nombre":"RIVAS (342)","lat":43.3083547175655,"lon":-2.99526508007852},{"id":"343","nombre":"URBINAGA (LA NAVAL) (343)","lat":43.3063471127769,"lon":-2.98945281977482},{"id":"345","nombre":"ERREKETA (345)","lat":43.3012675146684,"lon":-2.98214267183657},{"id":"372","nombre":"AV ALTOS HORNOS (372)","lat":43.296070619019,"lon":-2.97912863117115},{"id":"346","nombre":"OBISPO OLAETXEA 18 (346)","lat":43.2902535486891,"lon":-2.97553894218695},{"id":"347","nombre":"LUTXANA (GELTOKIA/ESTACIÓN) (347)","lat":43.2881464908712,"lon":-2.97566305091555},{"id":"348","nombre":"MUNOA  (KOTXETEGIA/COCHERAS) (348)","lat":43.2850664609693,"lon":-2.9765562980733},{"id":"349","nombre":"LOS ANGELES AUZOA (349)","lat":43.2821323674602,"lon":-2.98026287992169},{"id":"350","nombre":"BURTZEÑA (BATZOKIA) (350)","lat":43.2793399859109,"lon":-2.97902342875286},{"id":"351","nombre":"ZORROTZA (FRAY JUAN 13) (351)","lat":43.276547666559,"lon":-2.9719830154772},{"id":"352","nombre":"OLABEAGA (AVDA. MONTEVIDEO) (352)","lat":43.2647387859998,"lon":-2.96123588793565},{"id":"362","nombre":"SANTIAGO - SANTA ANA (362)","lat":43.2625038840137,"lon":-2.95639504952312},{"id":"353","nombre":"BASURTO OSPITALEA/HOSPITAL BASURTO (353)","lat":43.2600083583312,"lon":-2.95327967819966},{"id":"354","nombre":"AUTONOMÍA 61 (LANTIK) (354)","lat":43.25786304803,"lon":-2.94818070296599},{"id":"356","nombre":"LA CASILLA (AUTONOMÍA 45) (356)","lat":43.2576269866383,"lon":-2.94278794717174},{"id":"357","nombre":"AUTONOMÍA 13 (357)","lat":43.2573721668115,"lon":-2.93764325848109},{"id":"358","nombre":"ZABALBURU (QUINTA PARROQUIA) (358)","lat":43.2579450602647,"lon":-2.93274324286592},{"id":"171","nombre":"ABANDO (GELTOKIA/ESTACIÓN) (171)","lat":43.2605451701038,"lon":-2.92816527312086}]},"A3122":{"0":[{"id":"171","nombre":"ABANDO (GELTOKIA/ESTACIÓN) (171)","lat":43.2605451701038,"lon":-2.92816527312086},{"id":"305","nombre":"ZABALBURU (AUTONOMÍA 4) (305)","lat":43.2573977902076,"lon":-2.93514222498991},{"id":"306","nombre":"AUTONOMÍA 20 (306)","lat":43.2575253937742,"lon":-2.93791414782263},{"id":"307","nombre":"LA CASILLA (AUTONOMIA 50) (307)","lat":43.2577891164216,"lon":-2.9428789656898},{"id":"308","nombre":"AUTONOMÍA 78 (LANTIK) (308)","lat":43.2580431192847,"lon":-2.94813126881199},{"id":"309","nombre":"BASURTO OSPITALEA/HOSPITAL BASURTO (309)","lat":43.2601703416076,"lon":-2.95303313849602},{"id":"361","nombre":"SANTIAGO - SANTA ANA (361)","lat":43.2629000943231,"lon":-2.9564070880931},{"id":"310","nombre":"OLABEAGA (AVDA. MONTEVIDEO) (310)","lat":43.264990904232,"lon":-2.96119876267004},{"id":"311","nombre":"ZORROTZA (FRAY JUAN 8) (311)","lat":43.2766730082295,"lon":-2.97160522364472},{"id":"312","nombre":"BURTZEÑA (PILOTALEKUA/FRONTÓN) (312)","lat":43.2803310552714,"lon":-2.97815603438521},{"id":"313","nombre":"ZUMALAKARREGI (KOTXETEGIA/COCHERAS) (313)","lat":43.2837338018665,"lon":-2.97669239082472},{"id":"314","nombre":"LUTXANA (GELTOKIA/ESTACIÓN) (314)","lat":43.288533661218,"lon":-2.97552730487965},{"id":"315","nombre":"OBISPO OLAETXEA (315)","lat":43.2903345160405,"lon":-2.97519375710934},{"id":"373","nombre":"AV ALTOS HORNOS (373)","lat":43.2963857309818,"lon":-2.97885730515783},{"id":"316","nombre":"ERREKETA (316)","lat":43.3018707908781,"lon":-2.98193289870009},{"id":"318","nombre":"URBINAGA (LA NAVAL) (318)","lat":43.3065181900118,"lon":-2.98934181885212},{"id":"374","nombre":"RIVAS (374)","lat":43.3079322261402,"lon":-2.9935215893319},{"id":"375","nombre":"GRAN VÍA 55 (ZAHAR-EGOITZA/ASILO) (375)","lat":43.3077522986678,"lon":-2.99792356083221},{"id":"376","nombre":"KUETO (GRAN VÍA) (376)","lat":43.3082917636801,"lon":-3.0021208473595},{"id":"377","nombre":"EL KASKO PLAZA (GRAN VIA) (377)","lat":43.309508108033,"lon":-3.00671532850916},{"id":"801","nombre":"VÍA GALINDO 14 (801)","lat":43.3069236742253,"lon":-3.00841673923329},{"id":"378","nombre":"MARIANA PINEDA (378)","lat":43.3091556126963,"lon":-3.01183745521968},{"id":"379","nombre":"HILERRIA/CEMENTERIO (379)","lat":43.312136030222,"lon":-3.01281220516877},{"id":"433","nombre":"ERREPELEGA / REPELEGA (433)","lat":43.3146036578093,"lon":-3.01750620053938},{"id":"434","nombre":"RAMÓN Y CAJAL (GASOLINDEGIA/GASOLINERA) (434)","lat":43.3156375247582,"lon":-3.0214453358855},{"id":"451","nombre":"MIGUEL DE UNAMUNO ( BEILATOKIA / TANATORIO) (451)","lat":43.3145837667038,"lon":-3.02259182087049},{"id":"453","nombre":"BALLONTI (453)","lat":43.3128280051121,"lon":-3.02190061070261}],"1":[{"id":"453","nombre":"BALLONTI (453)","lat":43.3128280051121,"lon":-3.02190061070261},{"id":"452","nombre":"ERREPELEGA / REPELEGA (452)","lat":43.3139014444472,"lon":-3.01653179925692},{"id":"382","nombre":"HILERRIA/CEMENTERIO (382)","lat":43.312236050989,"lon":-3.01299226323641},{"id":"383","nombre":"EL KASKO PLAZA (LAS LLANAS) (383)","lat":43.3089758776912,"lon":-3.00764500063822},{"id":"384","nombre":"VICENTE BLASCO IBÁÑEZ (SAN PEDRO PLAZA) (384)","lat":43.3077424115123,"lon":-3.00456224683798},{"id":"385","nombre":"KUETO (VICENTE BLASCO IBÁÑEZ) (385)","lat":43.3077785084399,"lon":-3.00168926536944},{"id":"386","nombre":"GRAN VÍA 64 (ZAHAR-EGOITZA/ASILO) (386)","lat":43.3076353330657,"lon":-2.99817017231794},{"id":"387","nombre":"RIVAS (GRAN VIA) (387)","lat":43.3078511916198,"lon":-2.99364490212634},{"id":"343","nombre":"URBINAGA (LA NAVAL) (343)","lat":43.3063471127769,"lon":-2.98945281977482},{"id":"345","nombre":"ERREKETA (345)","lat":43.3012675146684,"lon":-2.98214267183657},{"id":"372","nombre":"AV ALTOS HORNOS (372)","lat":43.296070619019,"lon":-2.97912863117115},{"id":"346","nombre":"OBISPO OLAETXEA 18 (346)","lat":43.2902535486891,"lon":-2.97553894218695},{"id":"347","nombre":"LUTXANA (GELTOKIA/ESTACIÓN) (347)","lat":43.2881464908712,"lon":-2.97566305091555},{"id":"348","nombre":"MUNOA  (KOTXETEGIA/COCHERAS) (348)","lat":43.2850664609693,"lon":-2.9765562980733},{"id":"349","nombre":"LOS ANGELES AUZOA (349)","lat":43.2821323674602,"lon":-2.98026287992169},{"id":"350","nombre":"BURTZEÑA (BATZOKIA) (350)","lat":43.2793399859109,"lon":-2.97902342875286},{"id":"351","nombre":"ZORROTZA (FRAY JUAN 13) (351)","lat":43.276547666559,"lon":-2.9719830154772},{"id":"352","nombre":"OLABEAGA (AVDA. MONTEVIDEO) (352)","lat":43.2647387859998,"lon":-2.96123588793565},{"id":"362","nombre":"SANTIAGO - SANTA ANA (362)","lat":43.2625038840137,"lon":-2.95639504952312},{"id":"353","nombre":"BASURTO OSPITALEA/HOSPITAL BASURTO (353)","lat":43.2600083583312,"lon":-2.95327967819966},{"id":"354","nombre":"AUTONOMÍA 61 (LANTIK) (354)","lat":43.25786304803,"lon":-2.94818070296599},{"id":"356","nombre":"LA CASILLA (AUTONOMÍA 45) (356)","lat":43.2576269866383,"lon":-2.94278794717174},{"id":"357","nombre":"AUTONOMÍA 13 (357)","lat":43.2573721668115,"lon":-2.93764325848109},{"id":"358","nombre":"ZABALBURU (QUINTA PARROQUIA) (358)","lat":43.2579450602647,"lon":-2.93274324286592},{"id":"171","nombre":"ABANDO (GELTOKIA/ESTACIÓN) (171)","lat":43.2605451701038,"lon":-2.92816527312086}]},"A3129":{"0":[{"id":"392","nombre":"BUEN PASTOR (392)","lat":43.2902170463216,"lon":-2.97623382168378},{"id":"393","nombre":"LUTXANA (ELIZA/IGLESIA) (393)","lat":43.2906956522151,"lon":-2.97954502460604},{"id":"394","nombre":"ANDIKOLLANO (ANBULATORIOA) (394)","lat":43.2882549320563,"lon":-2.98102957844521},{"id":"395","nombre":"BALEJO (BOLATOKIA/BOLERA) (395)","lat":43.2854826845573,"lon":-2.98404584808698},{"id":"396","nombre":"CRUCES OSPITALEA (BALEJO) (396)","lat":43.2824479693985,"lon":-2.9829989916782},{"id":"397","nombre":"LA PAZ 21 (397)","lat":43.2811970153127,"lon":-2.98769530150171},{"id":"418","nombre":"ANAITASUNA 10 (418)","lat":43.2833493468311,"lon":-2.98996275407885},{"id":"419","nombre":"RETUERTO 28 (419)","lat":43.2836379967103,"lon":-2.99741965080268},{"id":"420","nombre":"KAREAGA (420)","lat":43.2865914738816,"lon":-3.00411248796927},{"id":"421","nombre":"MAX CENTER (N-634) (421)","lat":43.2884733045795,"lon":-3.00831595256228},{"id":"667","nombre":"MAX CENTER (ALDAITURRIAGA) (667)","lat":43.2900217870887,"lon":-3.01187861350681},{"id":"668","nombre":"UGARTE (EL JUNCAL) (668)","lat":43.2918574206145,"lon":-3.01464469848411},{"id":"669","nombre":"EL JUNCAL (FORD) (669)","lat":43.2942707364936,"lon":-3.01404122150644},{"id":"426","nombre":"APARKABISA (426)","lat":43.2948115140018,"lon":-3.00909790456225},{"id":"424","nombre":"CARREFOUR (424)","lat":43.2998103334881,"lon":-3.00130216720634},{"id":"425","nombre":"VEGA NUEVA (ARAZTEGIA/DEPURADORA) (425)","lat":43.306167482568,"lon":-2.99764014627071},{"id":"3805","nombre":"URBINAGA (METRO) (3805)","lat":43.3065004585509,"lon":-2.992924962325},{"id":"318","nombre":"URBINAGA (LA NAVAL) (318)","lat":43.3065181900118,"lon":-2.98934181885212},{"id":"374","nombre":"RIVAS (374)","lat":43.3079322261402,"lon":-2.9935215893319},{"id":"375","nombre":"GRAN VÍA 55 (ZAHAR-EGOITZA/ASILO) (375)","lat":43.3077522986678,"lon":-2.99792356083221},{"id":"376","nombre":"KUETO (GRAN VÍA) (376)","lat":43.3082917636801,"lon":-3.0021208473595},{"id":"377","nombre":"EL KASKO PLAZA (GRAN VIA) (377)","lat":43.309508108033,"lon":-3.00671532850916},{"id":"801","nombre":"VÍA GALINDO 14 (801)","lat":43.3069236742253,"lon":-3.00841673923329},{"id":"378","nombre":"MARIANA PINEDA (378)","lat":43.3091556126963,"lon":-3.01183745521968},{"id":"379","nombre":"HILERRIA/CEMENTERIO (379)","lat":43.312136030222,"lon":-3.01281220516877},{"id":"433","nombre":"ERREPELEGA / REPELEGA (433)","lat":43.3146036578093,"lon":-3.01750620053938},{"id":"434","nombre":"RAMÓN Y CAJAL (GASOLINDEGIA/GASOLINERA) (434)","lat":43.3156375247582,"lon":-3.0214453358855},{"id":"435","nombre":"CARLOS VII (LOS ANGELES KAFETEGIA) (435)","lat":43.3170790906354,"lon":-3.02273567647254},{"id":"776","nombre":"SIMON BOLIBAR 14 (776)","lat":43.3201665601475,"lon":-3.02285288033966},{"id":"438","nombre":"SAN JUAN DE DIOS (ZOMILLO) (438)","lat":43.3241289577457,"lon":-3.02611761868309},{"id":"328","nombre":"MURRIETA 13 (BATZOKIA) (328)","lat":43.3271890121265,"lon":-3.02790025357276},{"id":"523","nombre":"PARKEA/PARQUE (ITSASALDE 2) (523)","lat":43.3301605125196,"lon":-3.0323738895527},{"id":"331","nombre":"GERNIKA PARKEA (331)","lat":43.3289339828726,"lon":-3.03488248261171},{"id":"442","nombre":"ANBULATORIOA (442)","lat":43.3248098886388,"lon":-3.03488012281846},{"id":"443","nombre":"CABIECES (443)","lat":43.3217756908554,"lon":-3.03748797603254}],"1":[{"id":"443","nombre":"CABIECES (443)","lat":43.3217756908554,"lon":-3.03748797603254},{"id":"445","nombre":"ANTONIO ALZAGA 7 (445)","lat":43.3238199165876,"lon":-3.03309117749221},{"id":"446","nombre":"GENERAL CASTAÑOS 113 (446)","lat":43.3246940937151,"lon":-3.0304522134877},{"id":"447","nombre":"GENERAL CASTAÑOS 83 (447)","lat":43.3233454235915,"lon":-3.0267055934552},{"id":"4126","nombre":"SIMON BOLIVAR 11 (4126)","lat":43.3208237774672,"lon":-3.02343277963222},{"id":"450","nombre":"CARLOS VII 18 (450)","lat":43.3180685746664,"lon":-3.02243278959486},{"id":"451","nombre":"MIGUEL DE UNAMUNO ( BEILATOKIA / TANATORIO) (451)","lat":43.3145837667038,"lon":-3.02259182087049},{"id":"452","nombre":"ERREPELEGA / REPELEGA (452)","lat":43.3139014444472,"lon":-3.01653179925692},{"id":"382","nombre":"HILERRIA/CEMENTERIO (382)","lat":43.312236050989,"lon":-3.01299226323641},{"id":"383","nombre":"EL KASKO PLAZA (LAS LLANAS) (383)","lat":43.3089758776912,"lon":-3.00764500063822},{"id":"384","nombre":"VICENTE BLASCO IBÁÑEZ (SAN PEDRO PLAZA) (384)","lat":43.3077424115123,"lon":-3.00456224683798},{"id":"385","nombre":"KUETO (VICENTE BLASCO IBÁÑEZ) (385)","lat":43.3077785084399,"lon":-3.00168926536944},{"id":"386","nombre":"GRAN VÍA 64 (ZAHAR-EGOITZA/ASILO) (386)","lat":43.3076353330657,"lon":-2.99817017231794},{"id":"387","nombre":"RIVAS (GRAN VIA) (387)","lat":43.3078511916198,"lon":-2.99364490212634},{"id":"343","nombre":"URBINAGA (LA NAVAL) (343)","lat":43.3063471127769,"lon":-2.98945281977482},{"id":"3806","nombre":"URBINAGA (METRO) (3806)","lat":43.3067075927999,"lon":-2.99339841750936},{"id":"460","nombre":"VEGA NUEVA (ARAZTEGIA/DEPURADORA) (460)","lat":43.3063557418789,"lon":-2.99657222759147},{"id":"461","nombre":"CARREFOUR (461)","lat":43.300431652578,"lon":-3.00125286478833},{"id":"426","nombre":"APARKABISA (426)","lat":43.2948115140018,"lon":-3.00909790456225},{"id":"684","nombre":"EL JUNCAL (FORD) (684)","lat":43.2940465783187,"lon":-3.01430781655907},{"id":"685","nombre":"UGARTE (EL JUNCAL) (685)","lat":43.2919474398848,"lon":-3.01485428257571},{"id":"463","nombre":"MAX CENTER (N-634) (463)","lat":43.2876628871264,"lon":-3.00697227107718},{"id":"464","nombre":"KAREAGA (464)","lat":43.2863843658714,"lon":-3.00414945226338},{"id":"465","nombre":"RETUERTO 17 (465)","lat":43.2833407333003,"lon":-2.9966431589099},{"id":"466","nombre":"SAN IGNACIO (VICENTE ALEXANDRE) (466)","lat":43.28377260517,"lon":-2.99043105557407},{"id":"467","nombre":"ANAITASUNA 12 (CORREOS) (467)","lat":43.2827640264367,"lon":-2.98975331933544},{"id":"400","nombre":"LA PAZ 27 (400)","lat":43.2813231156705,"lon":-2.98802805271605},{"id":"401","nombre":"LA PAZ 14 (ANBULATORIOA) (401)","lat":43.2803323370308,"lon":-2.98643834000568},{"id":"402","nombre":"CRUCES OSPITALEA (HORACIO ETXEBARRIETA) (402)","lat":43.2818985158644,"lon":-2.98189000204994},{"id":"403","nombre":"CIRILO SAGASTAGOITIA (403)","lat":43.2861398073241,"lon":-2.98256655243816},{"id":"404","nombre":"ANDIKOLLANO (ANBULATORIOA) (404)","lat":43.2883088979392,"lon":-2.98065976755557},{"id":"405","nombre":"LUTXANA (ELIZA/IGLESIA) (405)","lat":43.2906145728716,"lon":-2.97933549386142},{"id":"406","nombre":"BUEN PASTOR 76 (406)","lat":43.2900460067443,"lon":-2.97646809788618},{"id":"392","nombre":"BUEN PASTOR (392)","lat":43.2902170463216,"lon":-2.97623382168378}]},"A3135":{"0":[{"id":"376","nombre":"KUETO (GRAN VÍA) (376)","lat":43.3082917636801,"lon":-3.0021208473595},{"id":"377","nombre":"EL KASKO PLAZA (GRAN VIA) (377)","lat":43.309508108033,"lon":-3.00671532850916},{"id":"801","nombre":"VÍA GALINDO 14 (801)","lat":43.3069236742253,"lon":-3.00841673923329},{"id":"378","nombre":"MARIANA PINEDA (378)","lat":43.3091556126963,"lon":-3.01183745521968},{"id":"379","nombre":"HILERRIA/CEMENTERIO (379)","lat":43.312136030222,"lon":-3.01281220516877},{"id":"433","nombre":"ERREPELEGA / REPELEGA (433)","lat":43.3146036578093,"lon":-3.01750620053938},{"id":"434","nombre":"RAMÓN Y CAJAL (GASOLINDEGIA/GASOLINERA) (434)","lat":43.3156375247582,"lon":-3.0214453358855},{"id":"435","nombre":"CARLOS VII (LOS ANGELES KAFETEGIA) (435)","lat":43.3170790906354,"lon":-3.02273567647254},{"id":"436","nombre":"CARLOS VII 3 (436)","lat":43.3200149856659,"lon":-3.02062784895887},{"id":"519","nombre":"BIZKAIA ZUBIA / PUENTE BIZKAIA (519)","lat":43.323327878582,"lon":-3.018968997524},{"id":"520","nombre":"DOCTOR AREILZA PARKEA (520)","lat":43.3250394263484,"lon":-3.02076879861833},{"id":"521","nombre":"PEÑOTA (NAUTIKA) (521)","lat":43.3262637221608,"lon":-3.02294865867089},{"id":"522","nombre":"IGERILEKUAK / PISCINAS (522)","lat":43.3274604442516,"lon":-3.02700712168023},{"id":"523","nombre":"PARKEA/PARQUE (ITSASALDE 2) (523)","lat":43.3301605125196,"lon":-3.0323738895527},{"id":"331","nombre":"GERNIKA PARKEA (331)","lat":43.3289339828726,"lon":-3.03488248261171},{"id":"442","nombre":"ANBULATORIOA (442)","lat":43.3248098886388,"lon":-3.03488012281846},{"id":"443","nombre":"CABIECES (443)","lat":43.3217756908554,"lon":-3.03748797603254}],"1":[{"id":"443","nombre":"CABIECES (443)","lat":43.3217756908554,"lon":-3.03748797603254},{"id":"528","nombre":"ANBULATORIOA (528)","lat":43.3253965961741,"lon":-3.03408590435561},{"id":"529","nombre":"UDALETXEA / AYUNTAMIENTO (529)","lat":43.3281162419663,"lon":-3.03318700532023},{"id":"531","nombre":"IGERILEKUAK / PISCINAS (531)","lat":43.3269654856684,"lon":-3.02573647111198},{"id":"532","nombre":"PEÑOTA (NAUTIKA) (532)","lat":43.3261646619314,"lon":-3.0229979578696},{"id":"533","nombre":"DOCTOR AREILZA PARKEA (533)","lat":43.3250754925879,"lon":-3.02099945487193},{"id":"534","nombre":"BIZKAIA ZUBIA / PUENTE BIZKAIA (534)","lat":43.3234999012533,"lon":-3.01929687768796},{"id":"334","nombre":"ABARO 11 (334)","lat":43.3220319675043,"lon":-3.020875073732},{"id":"449","nombre":"CARLOS VII 4 (449)","lat":43.3200869865846,"lon":-3.02082519960253},{"id":"450","nombre":"CARLOS VII 18 (450)","lat":43.3180685746664,"lon":-3.02243278959486},{"id":"451","nombre":"MIGUEL DE UNAMUNO ( BEILATOKIA / TANATORIO) (451)","lat":43.3145837667038,"lon":-3.02259182087049},{"id":"452","nombre":"ERREPELEGA / REPELEGA (452)","lat":43.3139014444472,"lon":-3.01653179925692},{"id":"382","nombre":"HILERRIA/CEMENTERIO (382)","lat":43.312236050989,"lon":-3.01299226323641},{"id":"383","nombre":"EL KASKO PLAZA (LAS LLANAS) (383)","lat":43.3089758776912,"lon":-3.00764500063822},{"id":"384","nombre":"VICENTE BLASCO IBÁÑEZ (SAN PEDRO PLAZA) (384)","lat":43.3077424115123,"lon":-3.00456224683798}]},"A3136":{"0":[{"id":"3949","nombre":"ABANDO (GELTOKIA/ESTACIÓN) (3949)","lat":43.2603832636048,"lon":-2.92844884267088},{"id":"305","nombre":"ZABALBURU (AUTONOMÍA 4) (305)","lat":43.2573977902076,"lon":-2.93514222498991},{"id":"306","nombre":"AUTONOMÍA 20 (306)","lat":43.2575253937742,"lon":-2.93791414782263},{"id":"307","nombre":"LA CASILLA (AUTONOMIA 50) (307)","lat":43.2577891164216,"lon":-2.9428789656898},{"id":"308","nombre":"AUTONOMÍA 78 (LANTIK) (308)","lat":43.2580431192847,"lon":-2.94813126881199},{"id":"309","nombre":"BASURTO OSPITALEA/HOSPITAL BASURTO (309)","lat":43.2601703416076,"lon":-2.95303313849602},{"id":"361","nombre":"SANTIAGO - SANTA ANA (361)","lat":43.2629000943231,"lon":-2.9564070880931},{"id":"310","nombre":"OLABEAGA (AVDA. MONTEVIDEO) (310)","lat":43.264990904232,"lon":-2.96119876267004},{"id":"311","nombre":"ZORROTZA (FRAY JUAN 8) (311)","lat":43.2766730082295,"lon":-2.97160522364472},{"id":"574","nombre":"BURTZEÑA (GASOLINDEGIA/GASOLINERA) (574)","lat":43.2796731306881,"lon":-2.97887541758114},{"id":"395","nombre":"BALEJO (BOLATOKIA/BOLERA) (395)","lat":43.2854826845573,"lon":-2.98404584808698},{"id":"396","nombre":"CRUCES OSPITALEA (BALEJO) (396)","lat":43.2824479693985,"lon":-2.9829989916782},{"id":"397","nombre":"LA PAZ 21 (397)","lat":43.2811970153127,"lon":-2.98769530150171},{"id":"418","nombre":"ANAITASUNA 10 (418)","lat":43.2833493468311,"lon":-2.98996275407885},{"id":"419","nombre":"RETUERTO 28 (419)","lat":43.2836379967103,"lon":-2.99741965080268},{"id":"420","nombre":"KAREAGA (420)","lat":43.2865914738816,"lon":-3.00411248796927},{"id":"464","nombre":"KAREAGA (464)","lat":43.2863843658714,"lon":-3.00414945226338},{"id":"465","nombre":"RETUERTO 17 (465)","lat":43.2833407333003,"lon":-2.9966431589099},{"id":"472","nombre":"RETUERTO (AV. EUSKADI) (472)","lat":43.2849786764147,"lon":-2.99433013280906},{"id":"4264","nombre":"ANSIO (4264)","lat":43.2891928588347,"lon":-2.98606632559243},{"id":"544","nombre":"RESURRECCIÓN MARÍA AZKUE 12 (544)","lat":43.2909493474861,"lon":-2.99100905317737},{"id":"581","nombre":"RESURRECCIÓN MARÍA AZKUE 34 (LA RONDA) (581)","lat":43.290013133025,"lon":-2.99556160705814},{"id":"507","nombre":"PRIMERO DE MAYO (507)","lat":43.2917412920219,"lon":-2.99884124659996},{"id":"3369","nombre":"ZULOKO (3369)","lat":43.2920303129822,"lon":-3.00276906392347},{"id":"3370","nombre":"GERNIKAKO ARBOLA 73 (3370)","lat":43.2939843501085,"lon":-2.99962561027535},{"id":"476","nombre":"SAN VICENTE (GERNIKAKO ARBOLA) (476)","lat":43.2943263458287,"lon":-2.99544652263702},{"id":"584","nombre":"GERNIKAKO ARBOLA (EPAITEGIAK/JUZGADOS) (584)","lat":43.2941632182088,"lon":-2.99138297054802},{"id":"601","nombre":"LANDABURU (601)","lat":43.2940105665548,"lon":-2.98727320942473},{"id":"390","nombre":"HERRIKO PLAZA (ARRANDI 1) (390)","lat":43.2971791173741,"lon":-2.98507047443114},{"id":"408","nombre":"MURRIETA (GELTOKIA/ESTACIÓN) (408)","lat":43.3002414431088,"lon":-2.98534108384167},{"id":"4142","nombre":"LASESARRE (4142)","lat":43.3028250548215,"lon":-2.98540198682961},{"id":"318","nombre":"URBINAGA (LA NAVAL) (318)","lat":43.3065181900118,"lon":-2.98934181885212},{"id":"374","nombre":"RIVAS (374)","lat":43.3079322261402,"lon":-2.9935215893319},{"id":"320","nombre":"LOS BAÑOS (320)","lat":43.3108490901795,"lon":-2.9999506759005},{"id":"321","nombre":"IBERIA (321)","lat":43.3111921025324,"lon":-3.00379304458193},{"id":"322","nombre":"CHAVARRI 34 (ARBOLEDA) (322)","lat":43.3124165380383,"lon":-3.00760350533479},{"id":"323","nombre":"CHAVARRI (GASOLINDEGIA/GASOLINERA) (323)","lat":43.3135959627318,"lon":-3.01090851587368},{"id":"3953","nombre":"AZETA (3953)","lat":43.3154507596512,"lon":-3.01237622699809},{"id":"324","nombre":"BEGIRATOKIA / MIRADOR (324)","lat":43.3181698233015,"lon":-3.01506526496157},{"id":"325","nombre":"GENERAL CASTAÑOS 2 (EL CRISTO) (325)","lat":43.3195562044937,"lon":-3.01735950559531},{"id":"326","nombre":"ABARO 10 (326)","lat":43.3219508787531,"lon":-3.02064071384148},{"id":"327","nombre":"SAN JUAN DE DIOS (OSPITALEA/HOSPITAL) (327)","lat":43.3248037815218,"lon":-3.02353298012941},{"id":"328","nombre":"MURRIETA 13 (BATZOKIA) (328)","lat":43.3271890121265,"lon":-3.02790025357276},{"id":"1086","nombre":"PARKEA/PARQUE (SIGLO XVIII) (1086)","lat":43.3283498381318,"lon":-3.03087341490601},{"id":"523","nombre":"PARKEA/PARQUE (ITSASALDE 2) (523)","lat":43.3301605125196,"lon":-3.0323738895527},{"id":"1048","nombre":"ITSASALDE 48 (1048)","lat":43.3330135048362,"lon":-3.03716158213712},{"id":"1106","nombre":"MAMARIGA (PLAZA) (1106)","lat":43.3318774284835,"lon":-3.03816535115892},{"id":"1107","nombre":"REGALES 4 (1107)","lat":43.3327153367605,"lon":-3.04017124959885},{"id":"1108","nombre":"REGALES 32 (1108)","lat":43.3343881562363,"lon":-3.04254612758547},{"id":"1109","nombre":"SAN JUAN (BIDEGURUTZEA/CRUCE) (1109)","lat":43.3352976507846,"lon":-3.04572537203301},{"id":"1095","nombre":"SAN JUAN (1095)","lat":43.336043231427,"lon":-3.04704996735961}],"1":[{"id":"1095","nombre":"SAN JUAN (1095)","lat":43.336043231427,"lon":-3.04704996735961},{"id":"1097","nombre":"SAN JUAN (BIDEGURUTZEA/CRUCE) (1097)","lat":43.3354133785929,"lon":-3.04590223365622},{"id":"1098","nombre":"REGALES 11-15 (1098)","lat":43.3342260879163,"lon":-3.04250900718291},{"id":"1099","nombre":"MAMARIGA 139 (1099)","lat":43.3325847701654,"lon":-3.04017239708368},{"id":"1100","nombre":"MAMARIGA (PLAZA) (1100)","lat":43.3316308948194,"lon":-3.03840042958999},{"id":"1084","nombre":"SABINO ARANA (1084)","lat":43.33043880832,"lon":-3.03523575437426},{"id":"330","nombre":"LAS VIÑAS (330)","lat":43.3282331753099,"lon":-3.03361877790969},{"id":"332","nombre":"MURRIETA 42 (BATZOKIA) (332)","lat":43.3274228891726,"lon":-3.02887477638773},{"id":"333","nombre":"SAN JUAN DE DIOS (OSPITALEA/HOSPITAL) (333)","lat":43.3252818931702,"lon":-3.02453936781537},{"id":"334","nombre":"ABARO 11 (334)","lat":43.3220319675043,"lon":-3.020875073732},{"id":"335","nombre":"GENERAL CASTAÑOS 19 (335)","lat":43.3201672021412,"lon":-3.01937500022008},{"id":"336","nombre":"BEGIRATOKIA / MIRADOR (336)","lat":43.3181697302543,"lon":-3.01575588522469},{"id":"337","nombre":"AZETA (337)","lat":43.3147394153828,"lon":-3.01220343728082},{"id":"338","nombre":"CHAVARRI (GASOLINDEGIA/GASOLINERA) (338)","lat":43.3134328878653,"lon":-3.0109257508722},{"id":"339","nombre":"CHAVARRI 111 (ARBOLEDA) (339)","lat":43.3122904736789,"lon":-3.00760348961897},{"id":"340","nombre":"IBERIA (340)","lat":43.3113541311759,"lon":-3.00517414087931},{"id":"341","nombre":"LOS BAÑOS (341)","lat":43.3106059644655,"lon":-2.99940811316531},{"id":"342","nombre":"RIVAS (342)","lat":43.3083547175655,"lon":-2.99526508007852},{"id":"343","nombre":"URBINAGA (LA NAVAL) (343)","lat":43.3063471127769,"lon":-2.98945281977482},{"id":"3554","nombre":"EL DESIERTO PLAZA (3554)","lat":43.301807953927,"lon":-2.98321515384245},{"id":"409","nombre":"HERRIKO PLAZA 3 (409)","lat":43.2973961560728,"lon":-2.98675471450745},{"id":"410","nombre":"LOS HERMANOS (JUNTAS GENERALES 30) (410)","lat":43.2982970959009,"lon":-2.99068730665402},{"id":"411","nombre":"BEURKO (AV. MIRANDA 2) (411)","lat":43.2985989551779,"lon":-2.99368063230483},{"id":"504","nombre":"SAN ELOY (AV. MIRANDA) (504)","lat":43.2963875626841,"lon":-2.99471124409833},{"id":"505","nombre":"SAN VICENTE (ANTEIGLESIA PLAZA) (505)","lat":43.2952178503285,"lon":-2.99682717711655},{"id":"4140","nombre":"SAN BARTOLOMÉ 1 (4140)","lat":43.2950829077403,"lon":-3.00128986177201},